Name,Lat,Lng,,,,,,,
"موصل, Earthlink Alshams Internet Center",36.4496467,43.104894,,,,,,,
"موصل, معمل غاز التوفيق",36.4494696,43.0981639,,,,,,,
"موصل, جامع التوفيق",36.4493507,43.0879005,,,,,,,
"موصل, Concrete spacers Iraq",36.449078,43.21727,,,,,,,
"موصل, معمل العراق لانتاج السبيسرات الخرسانية",36.449078,43.21727,,,,,,,
"موصل, مضيف الشيخ مزاحم بن علي ال چامي",36.4487369,43.09444,,,,,,,
"موصل, وائل الهميلة",36.4487193,43.1391424,,,,,,,
"موصل, معمل السلام للألمنيوم /بأدارة احمد الزنيزل و ولده اشرف",36.448612,43.0975601,,,,,,,
"موصل, معمل الحاج ادريس",36.4484947,43.1012253,,,,,,,
"موصل, كراج الرافع",36.448444,43.0984717,,,,,,,
"موصل, مخزن سيراميك النعيمي",36.4484256,43.0976979,,,,,,,
"موصل, بيت دناوي الحلو",36.448393,43.086634,,,,,,,
"موصل, جامع السعيد",36.448349,43.1059501,,,,,,,
"موصل, مكتب ابو سعد لتجارة العقار",36.4480556,43.1191941,,,,,,,
"موصل, أراضي إسكان موظفي الحكومة المحلية",36.4480208,43.2006467,,,,,,,
"موصل, محل ابو سالار اللتبريد المحمول",36.4479336,43.0972105,,,,,,,
"موصل, حجي صفاء للتبريد المحمول",36.4479163,43.0966397,,,,,,,
"موصل, ابو مصعب",36.4477222,43.1370556,,,,,,,
"موصل, معمل البان و مرطبات الحزيره",36.4476667,43.2081395,,,,,,,
"موصل, بيت الفرج (ابو حمودي)",36.447662,43.0867163,,,,,,,
"موصل, محطة تعبئة المهند",36.4476592,43.0980637,,,,,,,
"موصل, محل مواد منزلية",36.4476462,43.1090374,,,,,,,
"موصل, اسواق الحيالي",36.4476181,43.1090234,,,,,,,
"موصل, مولدة النعيمي",36.4475151,43.1066957,,,,,,,
"موصل, كراج ابو محمود الفيتر",36.4474639,43.0992321,,,,,,,
"موصل, شركة البان الجزيرة",36.4474249,43.2086978,,,,,,,
"موصل, Nineveh International Fair",36.4474167,43.2122091,,,,,,,
"موصل, مقبرة تليارة",36.4473536,43.2560492,,,,,,,
"موصل, مزرعة د. عبدالله الحطاب",36.4473331,43.2064076,,,,,,,
"موصل, شركة المها للتجارة العامة المحدودة",36.4473072,43.2117205,,,,,,,
"موصل, اعلاف النبراس",36.4472894,43.0993042,,,,,,,
"موصل, شركة نور الكفيل وكيل محافظة نينوى",36.4472375,43.2119774,,,,,,,
"موصل, محطة المهند المشيدة",36.4471594,43.0974562,,,,,,,
"موصل, ادوات احتياطيه عبدالرحمن تم نقل المحل قرب محطة تعبئة المهند مقابل الاستداره",36.4471335,43.0977947,,,,,,,
"موصل, حي التربيه الثالثة",36.4471219,43.1302006,,,,,,,
"موصل, معرض نينوى الدولي",36.4469757,43.2120819,,,,,,,
"موصل, مكتب العمران",36.4468364,43.0978378,,,,,,,
"موصل, دورات تقوية لغة انكليزية",36.4468106,43.2560128,,,,,,,
"موصل, مخزن تبريد وتجميد الشكور",36.4467942,43.2119615,,,,,,,
"موصل, مدرسة النبأ العظيم",36.44677,43.093741,,,,,,,
"موصل, مضيف ابو رائد (محمود عبوش)",36.4467697,43.0892396,,,,,,,
"موصل, محلات انس ابو يحيى",36.4467234,43.0994279,,,,,,,
"موصل, سنتر القوسيات",36.4465758,43.0994942,,,,,,,
"موصل, التربية الاولى",36.4465741,43.1310483,,,,,,,
"موصل, احمد للانترنيت ايرثلنك",36.4465512,43.1046475,,,,,,,
"موصل, مكتب ابو رسل للعقار",36.4464939,43.0971233,,,,,,,
"موصل, جامع الحاج بشير عبد الله النعيمي",36.4464854,43.1069062,,,,,,,
"موصل, بيتي",36.4464331,43.095686,,,,,,,
"موصل, دار الحاج لطيف علي الورشان",36.4464072,43.0948916,,,,,,,
"موصل, الشيخ علي محمود الورشان",36.4464029,43.094378,,,,,,,
"موصل, تركي الحبيطي",36.4462946,43.1045298,,,,,,,
"موصل, سامي ال سلطان",36.4462885,43.0961171,,,,,,,
"موصل, ماركت ابو يوسف",36.4462222,43.0983282,,,,,,,
"موصل, ملحق التربية الاولى",36.4461875,43.1283125,,,,,,,
"موصل, شيخ مشتاق الجبوري",36.4460447,43.1066052,,,,,,,
"موصل, اسواق الزبيدي",36.4458881,43.0950061,,,,,,,
"موصل, دودي للادوات الاحتياطية",36.4458543,43.1006992,,,,,,,
"موصل, خالد العبيدي",36.4458452,43.1002068,,,,,,,
"موصل, القوسيات",36.4458452,43.1002068,,,,,,,
"موصل, بيت سعد داود ابو عبدالرحمن",36.4458452,43.1002068,,,,,,,
"موصل, فيتر رافع",36.4458447,43.1006829,,,,,,,
"موصل, عزت للزجاج و الديكور",36.4458447,43.1006829,,,,,,,
"موصل, لعبة الاحصنة",36.4458225,43.2132206,,,,,,,
"موصل, محلات السيد صالح",36.4458183,43.1002078,,,,,,,
"موصل, Nineveh International Auto Show",36.4458142,43.2115339,,,,,,,
"موصل, حي التربية",36.4458112,43.1318468,,,,,,,
"موصل, نوفي لغسل السيارات وتبديل الدهون",36.4457745,43.0986484,,,,,,,
"موصل, جامع الحاج محمود الورشان",36.445767,43.093874,,,,,,,
"موصل, بيت المستقبل",36.4457478,43.0850687,,,,,,,
"موصل, التربية الثالثة",36.445703,43.1393694,,,,,,,
"موصل, اسواقابوعلي",36.4456675,43.254397,,,,,,,
"موصل, شركة مسك الرحمة",36.445645,43.1014211,,,,,,,
"موصل, حي التربة الثالث",36.4456189,43.1409133,,,,,,,
"موصل, معمل البان ومرطبات الجزيرة",36.4456178,43.2096872,,,,,,,
"موصل, ابو صالح",36.4455725,43.1461369,,,,,,,
"موصل, مسجد آل طاهر",36.4455405,43.101015,,,,,,,
"موصل, Yahya House",36.4455381,43.1422032,,,,,,,
"موصل, سالم الجحيشي",36.4455381,43.139678,,,,,,,
"موصل, احمد حسين الفحام",36.4455002,43.1422543,,,,,,,
"موصل, عمارة العزاوي",36.44546,43.10054,,,,,,,
"موصل, جامع قمر بني هاشم (عليه السلام)",36.4454123,43.2536304,,,,,,,
"موصل, لعبة ديسكفري",36.4453686,43.2132099,,,,,,,
"موصل, البحيرة",36.4453538,43.2129176,,,,,,,
"موصل, بيت ابو مصطفى",36.4452865,43.1074211,,,,,,,
"موصل, جامع احمد سلمان المولى",36.4452479,43.1014334,,,,,,,
"موصل, Khalid Mohamed",36.4451795,43.0942247,,,,,,,
"موصل, معمل المنيوم البركه",36.4450719,43.2136917,,,,,,,
"موصل, دجلة ستي",36.4450719,43.2136917,,,,,,,
"موصل, مرتفعات بيشيطاغ ( الرشيدية )",36.4450514,43.0708373,,,,,,,
"موصل, دولاب الهواء",36.4450317,43.2133631,,,,,,,
"موصل, موقف سيارات الأجرة والخصوصي",36.4449853,43.0982377,,,,,,,
"موصل, احمد المحمداوي",36.4449756,43.1413537,,,,,,,
"موصل, أسواق ابو علي",36.4449645,43.0979478,,,,,,,
"موصل, قراج",36.4449559,43.0614666,,,,,,,
"موصل, مطعم دجله ستي",36.44492,43.2132587,,,,,,,
"موصل, اسواق ابو سهم",36.4449069,43.0987728,,,,,,,
"موصل, مكتب اليقظة للمواد الإنشائية /كاشي",36.444821,43.099165,,,,,,,
"موصل, دجلة مول",36.4447236,43.2124256,,,,,,,
"موصل, Tlyara",36.444707,43.2514101,,,,,,,
"موصل, عيادة القوسيات البيطرية",36.4446978,43.0980186,,,,,,,
"موصل, مكتب الشمس للعقار",36.4446733,43.0980383,,,,,,,
"موصل, عادل احمد الغتران المعماري",36.4433,43.109278,,,,,,,
"موصل, مزرعة الحاج احمد المطر الحديدي",36.4430804,43.188028,,,,,,,
"موصل, رافع فتحي يحيى",36.4429153,43.1604626,,,,,,,
"موصل, ابراهيم الحلاق",36.4427555,43.1067788,,,,,,,
"موصل, محلات رافع لبيع الفواكه والخضراوات",36.4427301,43.1025635,,,,,,,
"موصل, مولدة الاثار / شارع تلكيف",36.4426524,43.1061485,,,,,,,
"موصل, مزرعة الحاج عبدالله المشهداني",36.4425868,43.1887549,,,,,,,
"موصل, شركة الخضراء لبيض المائدة",36.4425623,43.1419615,,,,,,,
"موصل, دار",36.4425542,43.1190339,,,,,,,
"موصل, مطعم ومسگوف الفرات",36.4425097,43.1004351,,,,,,,
"موصل, شركة فورمال الموصل",36.4423907,43.1026982,,,,,,,
"موصل, Yuosef albrzngy",36.442329,43.1012968,,,,,,,
"موصل, بيت وائل",36.4422686,43.0978146,,,,,,,
"موصل, محطة وقود خورسباد",36.4421809,43.2088144,,,,,,,
"موصل, مني سنتر المنزلي",36.4420973,43.106473,,,,,,,
"موصل, بيت محمد ابو ورود",36.4420874,43.109989,,,,,,,
"موصل, مكتب Ayad_Net",36.4420673,43.1064677,,,,,,,
"موصل, محل رائد العلاف",36.442044,43.1064425,,,,,,,
"موصل, افران نوروز2",36.4420413,43.1064508,,,,,,,
"موصل, افران عين دهوك",36.4420234,43.1021695,,,,,,,
"موصل, حكم ٢",36.441992,43.1246768,,,,,,,
"موصل, مولدة السلام",36.4419781,43.1028273,,,,,,,
"موصل, اسواق الشام",36.4419522,43.1060806,,,,,,,
"موصل, دار ابومصطفى الجبوري",36.4419398,43.0893096,,,,,,,
"موصل, معرض المشهداني",36.4419171,43.0979509,,,,,,,
"موصل, حلاقة حكم",36.4419093,43.1060532,,,,,,,
"موصل, بورصه اليزن",36.4418119,43.101644,,,,,,,
"موصل, المازن للتسوق",36.4418119,43.1015908,,,,,,,
"موصل, اسواق شامل الاومري",36.4417958,43.1015552,,,,,,,
"موصل, اسواق حسن الخابوري",36.4417607,43.1019774,,,,,,,
"موصل, مجمع الشواملة",36.4417368,43.2315555,,,,,,,
"موصل, صيدليه الشفه",36.4416876,43.101597,,,,,,,
"موصل, عين العراق",36.4416823,43.2315832,,,,,,,
"موصل, مجمع التركمان",36.4416749,43.2315819,,,,,,,
"موصل, شقة ابو خالد",36.441622,43.1009156,,,,,,,
"موصل, أسواق ابو حسن",36.4415913,43.2506733,,,,,,,
"موصل, جرزات و حلويات الزعيم",36.4415884,43.1018676,,,,,,,
"موصل, عيادة السونار البيطرية",36.4414993,43.1058135,,,,,,,
"موصل, بورصة القلعة",36.4414818,43.1013779,,,,,,,
"موصل, مكتب أبو حمودي الاستنساخ",36.4414794,43.1006289,,,,,,,
"موصل, حي جمعية النفط",36.4414068,43.1226917,,,,,,,
"موصل, أسواق وليد",36.4413761,43.1014067,,,,,,,
"موصل, مكتب جوان للانترنت Jowan.Net",36.4413709,43.1037647,,,,,,,
"موصل, مرطبات دادي",36.4412405,43.1016216,,,,,,,
"موصل, ساحة الزيتون",36.4412337,43.100237,,,,,,,
"موصل, اسواق الاياد",36.4412173,43.104121,,,,,,,
"موصل, ابو عثمان لمرور",36.4411493,43.0959651,,,,,,,
"موصل, مكتب ابو اسحاق للتجارت العقار",36.4411345,43.1012323,,,,,,,
"موصل, محل ابوحسن لبيع الإنشائية والكهربائيات والاصباغ",36.4411236,43.1001954,,,,,,,
"موصل, حلاقة صالح",36.4411188,43.0894354,,,,,,,
"موصل, رضوان رياض سعيد/حقل دواجن",36.4410986,43.1744147,,,,,,,
"موصل, محل هلا",36.441043,43.1015571,,,,,,,
"موصل, مخازن الخيرات للتبريد و التجميد",36.4410203,43.1757991,,,,,,,
"موصل, جمعية التربية",36.4410124,43.1309558,,,,,,,
"موصل, أسواق الريان",36.4409593,43.1015455,,,,,,,
"موصل, زيد",36.440937,43.127312,,,,,,,
"موصل, غسل الطيار الحديث",36.440936,43.100257,,,,,,,
"موصل, مكتب الأمين لصيانة الموبايل",36.4409167,43.101285,,,,,,,
"موصل, حي التعليم الثانية",36.4409113,43.1157938,,,,,,,
"موصل, مكتب الزبيدي للعقار",36.4408933,43.105825,,,,,,,
"موصل, محمد سالم",36.4408088,43.1559652,,,,,,,
"موصل, صيدلية محمد جعفر",36.4408051,43.1014738,,,,,,,
"موصل, مكتب احمد فون للموبايلات",36.4407506,43.1014677,,,,,,,
"موصل, ماركت ركن القوسيات",36.44067,43.1003691,,,,,,,
"موصل, ستوديو مراد",36.4406669,43.1003604,,,,,,,
"موصل, دار عبد حسن خليل الفرهودي",36.440648,43.107779,,,,,,,
"موصل, مسجد خديجة الكبرى",36.4406363,43.10857,,,,,,,
"موصل, السيد ابو حمزه الحديدي",36.4405815,43.1493546,,,,,,,
"موصل, اياد النعمات",36.4405633,43.1069567,,,,,,,
"موصل, حلاقة",36.440537,43.1057323,,,,,,,
"موصل, جمعية ذوي المهن الصحية",36.4405179,43.1340294,,,,,,,
"موصل, مكتب الاماني للتصوير",36.4404981,43.0896888,,,,,,,
"موصل, صيدلية القوسيات",36.4404951,43.1014402,,,,,,,
"موصل, مولدة الفهد",36.4404907,43.0894114,,,,,,,
"موصل, فارس العبادي",36.440473,43.107499,,,,,,,
"موصل, مكتب السعدون لتجارة العقارات",36.4404703,43.1004287,,,,,,,
"موصل, التعليم الثالثة",36.440434,43.1306475,,,,,,,
"موصل, مكتب الطارق 2",36.4404323,43.100496,,,,,,,
"موصل, مكتب ديجتال3للموبايل",36.4402848,43.1014712,,,,,,,
"موصل, مزرعة الحاج صباح الرحال الحديدي",36.4401782,43.1900393,,,,,,,
"موصل, اسواق الشكره",36.4401629,43.1055913,,,,,,,
"موصل, مرطبات وحلويات طيبة -3-",36.4401621,43.1015188,,,,,,,
"موصل, يحيى",36.4401505,43.1081387,,,,,,,
"موصل, مكتب سهم للعقار الفرع الاول",36.4401,43.1055314,,,,,,,
"موصل, جمعية غرفة تجارة",36.4400825,43.1078568,,,,,,,
"موصل, مكتب زمزم للموبايل و خدمات الانترنت",36.4400621,43.1004191,,,,,,,
"موصل, جامع الدكتور ضياء الدين الحنوش",36.4400574,43.10044,,,,,,,
"موصل, ابو نور البحار",36.4400455,43.1270349,,,,,,,
"موصل, مكتب ابو عذراء للعقار",36.4400408,43.1005763,,,,,,,
"موصل, المتوكل الحديث للعقار",36.4400405,43.100576,,,,,,,
"موصل, عمر هاشم للمفروشات",36.4400084,43.1055314,,,,,,,
"موصل, صيدلية ايهاب قوسيات",36.4400052,43.1055235,,,,,,,
"موصل, اراضي جمعية المثقفين",36.4399641,43.1406816,,,,,,,
"موصل, ماركت دعاء الخير",36.4399341,43.1094806,,,,,,,
"موصل, مكتب بكر للاستنساخ والموبايلات",36.4398948,43.0998631,,,,,,,
"موصل, مکتب ابو فھد للعقارات",36.4398931,43.1011767,,,,,,,
"موصل, جامع ابن القيم",36.4398436,43.1044346,,,,,,,
"موصل, القوسيات",36.4398425,43.1036257,,,,,,,
"موصل, حلاقه الشيخ",36.4397935,43.1006212,,,,,,,
"موصل, مركز الريان لخدمات الموبايل والانترنيت",36.439789,43.1007925,,,,,,,
"موصل, راشي القوسيات",36.4397555,43.101618,,,,,,,
"موصل, معرض دبي",36.4397549,43.1016135,,,,,,,
"موصل, اسواق عبد الله",36.4397417,43.101695,,,,,,,
"موصل, صيدلية العناية",36.4397394,43.10162,,,,,,,
"موصل, بيت",36.4397362,43.1564876,,,,,,,
"موصل, مطعم وماكولات الروابي بدارت ابو علي",36.4397127,43.101677,,,,,,,
"موصل, مكتب الوعد للاستنساخ",36.4397041,43.1016397,,,,,,,
"موصل, ملايين كوفي",36.4397024,43.1009085,,,,,,,
"موصل, منهل أبو اسماعيل العنزي",36.4396557,43.0969111,,,,,,,
"موصل, مجمع بغداد لبيع العدد اليدوية",36.4396455,43.1053399,,,,,,,
"موصل, شيخ عبد الرحمن الجوالي",36.4396125,43.0892344,,,,,,,
"موصل, معمل نجاره ودوشمه يوسف الهاشمي",36.4395595,43.1009531,,,,,,,
"موصل, حي التجاره السكني",36.4395279,43.1052586,,,,,,,
"موصل, مطعم ومشويات الزقورة",36.4395077,43.1017244,,,,,,,
"موصل, بيت النعيمي",36.4394978,43.1305338,,,,,,,
"موصل, ابو ارجوان العبيدي",36.4394378,43.1664007,,,,,,,
"موصل, مجمع حاج فيصل",36.4393844,43.1590729,,,,,,,
"موصل, غسل سما",36.4393277,43.1007843,,,,,,,
"موصل, ملعب ادريس",36.4392922,43.1046167,,,,,,,
"موصل, جامع الخلفاء",36.4392803,43.0848867,,,,,,,
"موصل, عامر الحيدر",36.4392637,43.1672952,,,,,,,
"موصل, جمعية اسكان المثقفين",36.4392064,43.1407152,,,,,,,
"موصل, ma7mood mobi",36.4391688,43.100359,,,,,,,
"موصل, Oday alali",36.4391616,43.1002648,,,,,,,
"موصل, قطعة ارض عبدالله شامل",36.4390697,43.1240171,,,,,,,
"موصل, الدعبار",36.4389576,43.0991806,,,,,,,
"موصل, مزرعة حسين عبدالله شمام",36.4389332,43.0642209,,,,,,,
"موصل, جامع بعويزه",36.4389125,43.1634448,,,,,,,
"موصل, مكتب الضمان الذهبي",36.4388741,43.1333572,,,,,,,
"موصل, مكتب الشيخ للعقار",36.438753,43.1233546,,,,,,,
"موصل, بيت أيوب الحمداني",36.4386716,43.1362647,,,,,,,
"موصل, ابو عمار الملا يوسف",36.4386184,43.1542231,,,,,,,
"موصل, مخازن الخيرات للتجميد والتبريد",36.4386133,43.1701937,,,,,,,
"موصل, مگتب ملك سيمو",36.4385778,43.0996255,,,,,,,
"موصل, مكتب ابو اسماعيل",36.4385718,43.0996398,,,,,,,
"موصل, كهربائيات المنار للتأسيس",36.4384245,43.1040656,,,,,,,
"موصل, مكتب القمة الذهبية",36.438412,43.128857,,,,,,,
"موصل, مكتب مسكان( لتجارة العقارات )",36.4372711,43.1180649,,,,,,,
"موصل, الملايين الثانية",36.4371311,43.094262,,,,,,,
"موصل, مكتب مساكن للعقار",36.4370806,43.1179689,,,,,,,
"موصل, حي الكهرباء مقاطعة ٣٦ بيسان",36.4370625,43.1128125,,,,,,,
"موصل, الارض مالتي",36.437037,43.1881145,,,,,,,
"موصل, ماركت ابو العز",36.4370284,43.1128066,,,,,,,
"موصل, العم محمد",36.437007,43.130997,,,,,,,
"موصل, محل اسعد الحداد",36.4370068,43.1541969,,,,,,,
"موصل, معمل غاز الكوثر",36.4369394,43.1154687,,,,,,,
"موصل, صالون ستايل ريان اللبناني",36.4368867,43.1029748,,,,,,,
"موصل, مجمع الجاموس",36.4368584,43.0926077,,,,,,,
"موصل, معمل ومعرض أثاث المتوكل",36.4368518,43.1031107,,,,,,,
"موصل, مسجد الحكم العدل",36.4367776,43.1193594,,,,,,,
"موصل, صباح نايف الجبوري",36.4367195,43.0998578,,,,,,,
"موصل, رياض السنجري",36.436706,43.1362362,,,,,,,
"موصل, بلال الجبوري",36.4366974,43.1130438,,,,,,,
"موصل, اسواق التعليم",36.4366827,43.1171618,,,,,,,
"موصل, مكتب دليل للعقار",36.4366706,43.1171361,,,,,,,
"موصل, مولدة مجمع النور",36.4366434,43.1063456,,,,,,,
"موصل, جمعية النور (مجمع النور السكني)",36.4364217,43.1077133,,,,,,,
"موصل, سنتر ماشاء الله",36.4363834,43.1612859,,,,,,,
"موصل, مقبرة بعويزة",36.4363737,43.1495946,,,,,,,
"موصل, بيوت أولاد محمد جواد",36.436361,43.1554187,,,,,,,
"موصل, سعد العباوي",36.4363126,43.1008031,,,,,,,
"موصل, مسجد عبدالغني ابراهيم الأمين",36.436312,43.1582793,,,,,,,
"موصل, بيت عزوز القروي",36.4362302,43.0990802,,,,,,,
"موصل, ملحق التربية الثانية",36.436203,43.1361615,,,,,,,
"موصل, مدرسة النبراس الاهلية",36.4361921,43.1146191,,,,,,,
"موصل, جامع الحافظ",36.4361396,43.0990521,,,,,,,
"موصل, اراضي طلال ابو رامي",36.4360585,43.0990864,,,,,,,
"موصل, ابويوسف الطائي",36.436042,43.156853,,,,,,,
"موصل, ابراج التعليم لتجارة العقارات",36.4360352,43.1155064,,,,,,,
"موصل, Ahmed ramzy",36.4360201,43.1378948,,,,,,,
"موصل, كلية نركال الجامعة /نينوى",36.4359392,43.1040517,,,,,,,
"موصل, جامع الشهيد",36.4359025,43.1346142,,,,,,,
"موصل, بيت ابو وسيم",36.4358487,43.1217228,,,,,,,
"موصل, عيادة سكاي لطب الاسنان",36.4358372,43.1151574,,,,,,,
"موصل, صدام الملاح",36.435762,43.1351905,,,,,,,
"موصل, محطة عطاء البركة",36.4356338,43.1025602,,,,,,,
"موصل, مكتب اهل اليسر للعقارات ابوحمزة الدباغ",36.4355451,43.1146227,,,,,,,
"موصل, حي الملايين الثانية",36.4355367,43.0996133,,,,,,,
"موصل, المؤمن لخدمات الانترنت",36.4355257,43.0995637,,,,,,,
"موصل, ورشة التقى لخدمات التكييف",36.4355162,43.1137023,,,,,,,
"موصل, مكتب الرونق الهندسي",36.4354852,43.1144325,,,,,,,
"موصل, مسجد الحج بشار",36.435483,43.1042082,,,,,,,
"موصل, جامع الشهيدين",36.435483,43.1042082,,,,,,,
"موصل, التعليم ماركت | Al -taleam market",36.4354369,43.114331,,,,,,,
"موصل, شركة باب المستقبل للمقاولات والبناء بالتقسبط",36.435432,43.1142839,,,,,,,
"موصل, مكتب مدينة التعليم",36.4354314,43.1142842,,,,,,,
"موصل, مينا للعقار",36.4354239,43.1144911,,,,,,,
"موصل, Mr. mobilization station",36.4353779,43.1023095,,,,,,,
"موصل, مكتب الجدير لتجارة العقارات",36.4353514,43.1141271,,,,,,,
"موصل, حي المعهد التقني",36.4353417,43.1214717,,,,,,,
"موصل, مكتب عيون نينوى لتجارة العقار",36.4353409,43.1140899,,,,,,,
"موصل, حلاقه الاديب",36.4353022,43.1083216,,,,,,,
"موصل, مقبرة",36.4352699,43.1957689,,,,,,,
"موصل, نايف محمد ال طه",36.4352362,43.0995966,,,,,,,
"موصل, محل للبيع الثلج",36.4352117,43.1038328,,,,,,,
"موصل, ابراهيم لخدمات الانترنت",36.4351985,43.0987017,,,,,,,
"موصل, مركز صحي المعهد التقني",36.4351828,43.1211532,,,,,,,
"موصل, Al-Maash Market",36.4351477,43.103184,,,,,,,
"موصل, مكتب المذهل للعقار",36.4350996,43.1128161,,,,,,,
"موصل, حارث صديق",36.4350374,43.123228,,,,,,,
"موصل, محطة تعبئة بعويزة المشيدة",36.4350355,43.1538744,,,,,,,
"موصل, ارض ريان",36.4348157,43.1391431,,,,,,,
"موصل, قسم الصيدلة والمستلزمات الطبية لدائرة صحة نينوى",36.434731,43.1131769,,,,,,,
"موصل, الكندي الخامسة",36.4347194,43.1386844,,,,,,,
"موصل, عمر ابو السبالت",36.4346164,43.0985576,,,,,,,
"موصل, ليث النجار",36.4345206,43.1083603,,,,,,,
"موصل, مخزن مديرية صحة نينوى",36.4345143,43.1137207,,,,,,,
"موصل, جامع التربية الرابعة",36.4345101,43.1305489,,,,,,,
"موصل, اسواق ابو سعد",36.4344367,43.0978216,,,,,,,
"موصل, مزرعة الشيخ قاسم الحمودي",36.4344138,43.1997439,,,,,,,
"موصل, مكتب التعليم للعقار",36.4343998,43.1113024,,,,,,,
"موصل, منظومة انترنت علي",36.4342638,43.1609179,,,,,,,
"موصل, مـعمل الغـيث للبلاستك والالمنيوم / بـادارة طـالب الشبكي",36.4342487,43.1551626,,,,,,,
"موصل, جامع العادل",36.434234,43.0971285,,,,,,,
"موصل, شركة رونق الحرير للتجارة العامة محدودة المسؤولية شركة خاصة",36.4341713,43.1107479,,,,,,,
"موصل, مكتب الأيهم",36.434116,43.1105772,,,,,,,
"موصل, ساحه نينوى لبيع الحديد التسليح",36.434116,43.1105772,,,,,,,
"موصل, موصل/ التعليم العالي",36.434116,43.1105772,,,,,,,
"موصل, وعدالله الآغا",36.4340011,43.1397147,,,,,,,
"موصل, جامع الريان",36.4339787,43.0894582,,,,,,,
"موصل, محمد الدوسكي",36.4338845,43.1586184,,,,,,,
"موصل, دار الحاج داؤد ال چامي",36.4338446,43.0894947,,,,,,,
"موصل, مجمع النور",36.433816,43.1087123,,,,,,,
"موصل, محطة كهرباء التعليم الثانوية المتنقله",36.433793,43.112103,,,,,,,
"موصل, روضة رواد المستقبل النموذجية الاهلية",36.4337487,43.1091818,,,,,,,
"موصل, قطعة ارض ثائر المعماري",36.4337278,43.098868,,,,,,,
"موصل, حلاقة التقني",36.4337187,43.1369074,,,,,,,
"موصل, مكتب مؤمن",36.433717,43.1098698,,,,,,,
"موصل, سايد للبناء -Side",36.4336914,43.1096632,,,,,,,
"موصل, محل الأخوين للزجاج",36.4336859,43.1097764,,,,,,,
"موصل, مكتب العارف للعقارات",36.4336577,43.1101125,,,,,,,
"موصل, بعويزة",36.4336398,43.1564709,,,,,,,
"موصل, جامع الصادق الأمين",36.4336226,43.1567481,,,,,,,
"موصل, زيد",36.4336017,43.1144983,,,,,,,
"موصل, مكتب ارض الخيرات للعقار",36.4335989,43.1099573,,,,,,,
"موصل, محلات الشيخ",36.4335957,43.1550346,,,,,,,
"موصل, صيدلية الغفران",36.4335583,43.1567022,,,,,,,
"موصل, المهندس محمد المختار",36.4335524,43.1095017,,,,,,,
"موصل, اسواق عبدالله",36.4335193,43.1573516,,,,,,,
"موصل, كوافير النور",36.4335083,43.1090861,,,,,,,
"موصل, مكتب بعويزة للعقارات",36.4335058,43.1565332,,,,,,,
"موصل, حي التربية الثانية",36.4335026,43.1367474,,,,,,,
"موصل, دراهم سنتر",36.4334119,43.1084882,,,,,,,
"موصل, مزارع الدكتور علي نجم",36.4334009,43.1627998,,,,,,,
"موصل, هميلة ماركت",36.433389,43.1091724,,,,,,,
"موصل, مكتب البيت العصري لتجارة العقارات",36.4333875,43.1091719,,,,,,,
"موصل, Murad waleed",36.4333795,43.1085118,,,,,,,
"موصل, مكتب صهيب للعقار",36.433372,43.1091704,,,,,,,
"موصل, محمد نزار العبيدي",36.4333177,43.0994833,,,,,,,
"موصل, دار ال عليوي",36.4333,43.1144433,,,,,,,
"موصل, شركه الموصل لتجاره المحدوده",36.4332989,43.1089598,,,,,,,
"موصل, محمد",36.433266,43.092053,,,,,,,
"موصل, مرطبات الجنائن 2",36.433253,43.1086229,,,,,,,
"موصل, افران الخير",36.4332447,43.1088245,,,,,,,
"موصل, حي التربية الرابعة",36.4332274,43.129509,,,,,,,
"موصل, صيدلية نبع الصحة",36.4332264,43.108761,,,,,,,
"موصل, مدرسة العباسية لمحو الامية",36.4331875,43.1948125,,,,,,,
"موصل, حمودي نت",36.4331859,43.1947707,,,,,,,
"موصل, مكتب القبلان لتجارة العقارات",36.433127,43.136873,,,,,,,
"موصل, سوق المعاش",36.433077,43.103566,,,,,,,
"موصل, مزرعة اسامة",36.4330695,43.1397899,,,,,,,
"موصل, محمد الهميلة",36.4329048,43.1473134,,,,,,,
"موصل, حي الملايين",36.4328833,43.09922,,,,,,,
"موصل, جمعية النور.حي التعليم",36.4327737,43.1065699,,,,,,,
"موصل, اسواق تبارك الرحمن",36.4327646,43.0984335,,,,,,,
"موصل, مكتب أبو يحيى للديكورات الهندسية الخارجية و الداخلية",36.4327527,43.0982464,,,,,,,
"موصل, افران ومخبز تبارك الرحمن",36.4326993,43.0983091,,,,,,,
"موصل, احمد بشير ابو عصمت",36.4326509,43.1604688,,,,,,,
"موصل, متوسطة العباسية المختلطة",36.432627,43.1947272,,,,,,,
"موصل, كوافير عبدالله الباشا",36.4326197,43.0986943,,,,,,,
"موصل, اسواق حمودي",36.4325749,43.1960398,,,,,,,
"موصل, مرعي عبدالله النجار و ناظم محمد/حقل دواجن",36.4325125,43.2077999,,,,,,,
"موصل, مكتب ركن السمان للعقار",36.4324573,43.0982799,,,,,,,
"موصل, جامع اهل القران",36.4314631,43.0986202,,,,,,,
"موصل, مكتب الشروق للأراكيل والسكائر",36.4313751,43.1054766,,,,,,,
"موصل, مكتب الامال للعقارات",36.4313704,43.1055076,,,,,,,
"موصل, القاسم لخدمات الإنترنت",36.431262,43.1178232,,,,,,,
"موصل, مزار الشيخ حسن فردوس",36.4311558,43.2968445,,,,,,,
"موصل, مخازن تبريد الكندي",36.4309645,43.1010783,,,,,,,
"موصل, مقبرة الدراويش الصغيرة",36.4309197,43.2964563,,,,,,,
"موصل, حسام السويداني",36.430915,43.194756,,,,,,,
"موصل, الموصل - الشلاشلات",36.4308269,43.2006432,,,,,,,
"موصل, جامع عمر بن عبد العزيز",36.4308263,43.1588508,,,,,,,
"موصل, مكتب الصفوة لتجارة العقار بادارة ابو براهيم",36.4308261,43.1364481,,,,,,,
"موصل, حي التعليم العالي",36.4307855,43.1158205,,,,,,,
"موصل, AFMS.VET",36.4307652,43.1153769,,,,,,,
"موصل, yousif alhaj",36.4306583,43.0882,,,,,,,
"موصل, سنتر التعليم للادوات المنزلية",36.4305625,43.1135625,,,,,,,
"موصل, كوافير دشتاوي : barber shop",36.4305445,43.1135942,,,,,,,
"موصل, مول النخيل",36.4305301,43.113628,,,,,,,
"موصل, ماركت العبيدي",36.4305287,43.1136297,,,,,,,
"موصل, مخزن سيراميك الياقوت والمرجان",36.4302707,43.0977086,,,,,,,
"موصل, مجمع أحمد الطائي",36.4302212,43.1594288,,,,,,,
"موصل, ابو زينه العبيدي",36.4301696,43.0949536,,,,,,,
"موصل, ملا نزار العشاني",36.4300503,43.2983523,,,,,,,
"موصل, جامع الياسين",36.4300274,43.1200928,,,,,,,
"موصل, انترنت دبي",36.4298735,43.0906288,,,,,,,
"موصل, مزرعة الحاج علي حسين نقي",36.4298496,43.035652,,,,,,,
"موصل, كومبه بابا",36.429828,43.2973216,,,,,,,
"موصل, جامع العباس بن عبد المطلب",36.4298005,43.1927178,,,,,,,
"موصل, حي التربيه (الكندي)",36.4297986,43.1496369,,,,,,,
"موصل, مستوصف العباسية",36.4297274,43.1923511,,,,,,,
"موصل, مدرسة الذرى الابتدائية",36.4296727,43.1072944,,,,,,,
"موصل, دبي لخدمات الإنترنت",36.429646,43.0910212,,,,,,,
"موصل, مجمع الملك",36.4296419,43.0909432,,,,,,,
"موصل, علي العفري",36.4296079,43.1149847,,,,,,,
"موصل, تربية الكندي",36.4295971,43.148028,,,,,,,
"موصل, عباس جارو",36.429574,43.2986222,,,,,,,
"موصل, علي الجبوري",36.4295688,43.1149451,,,,,,,
"موصل, سفيان الدندني",36.4295588,43.1208098,,,,,,,
"موصل, مولدة العباسية",36.4295572,43.1922692,,,,,,,
"موصل, ڤيلا الحاج وطبان صلبي الحديدي",36.4295429,43.1868871,,,,,,,
"موصل, مسجد وحسينية فاطمة الزهراء عليها السلام",36.4295209,43.2972874,,,,,,,
"موصل, وسام للاستثمار العقاري",36.4295111,43.1568198,,,,,,,
"موصل, ابو رواء",36.4295006,43.1884059,,,,,,,
"موصل, اسواق فخري",36.4294778,43.193318,,,,,,,
"موصل, قاعة جعفر الصادق عليه السلام المركزية/الدراويش",36.4294364,43.2972783,,,,,,,
"موصل, اسواق عبدالرحمن",36.429432,43.1916248,,,,,,,
"موصل, مكتب علي البدراني للصيانه الهواتف المحموله والاجهزة الوحيه",36.4292136,43.1067637,,,,,,,
"موصل, حلاقة ابن النقيب",36.4291984,43.156728,,,,,,,
"موصل, معمل غاز",36.4291453,43.2077295,,,,,,,
"موصل, جامع المرحوم احمد حسين شمام",36.4291407,43.088849,,,,,,,
"موصل, Ehab",36.429138,43.1203971,,,,,,,
"موصل, ڤيلا ملا طه طيمش الحديدي",36.4290581,43.1864847,,,,,,,
"موصل, المؤمن للتسوق",36.4290518,43.2037491,,,,,,,
"موصل, مكتب اليمامة للعقارات",36.4289692,43.2037132,,,,,,,
"موصل, جامع عز الدين حمودي",36.4289624,43.1000884,,,,,,,
"موصل, ليالي كوفي",36.4289098,43.1569057,,,,,,,
"موصل, مولدة الملايين الثانية",36.4288917,43.1021167,,,,,,,
"موصل, Al-Eskan Al'uwlaa neighborhood",36.4288677,43.1376906,,,,,,,
"موصل, فواز ألكناص",36.4288097,43.1393358,,,,,,,
"موصل, Muhammad Faiq Mosque",36.4287598,43.203501,,,,,,,
"موصل, ابو رياض القصاب",36.428694,43.1015445,,,,,,,
"موصل, مخزن",36.4286805,43.2050228,,,,,,,
"موصل, اسواق بيبي",36.4286748,43.1063738,,,,,,,
"موصل, بيت ابو نازك",36.4286534,43.1065004,,,,,,,
"موصل, Jame’ Beit Allah",36.428653,43.1136477,,,,,,,
"موصل, مزرعة الجحيش",36.4286323,43.1035265,,,,,,,
"موصل, دكان احمد",36.4284634,43.1886623,,,,,,,
"موصل, مديرية گمـــــــرك المنطقة الشمالية",36.4284622,43.1044717,,,,,,,
"موصل, ازاد المصور",36.4282992,43.107962,,,,,,,
"موصل, اسواق نسائي",36.4282931,43.1894288,,,,,,,
"موصل, سوبر ماركت ابو جاسم",36.4282507,43.1897946,,,,,,,
"موصل, ابو مهند الحريثي",36.42822,43.10055,,,,,,,
"موصل, احمد الطائي ابو مهند",36.4281587,43.1005884,,,,,,,
"موصل, حـلاقة جـود",36.4281519,43.1005906,,,,,,,
"موصل, مزرعة ابو عمار الحديدي",36.4280045,43.1885819,,,,,,,
"موصل, مكتب ابو هيفاء",36.4279647,43.1069803,,,,,,,
"موصل, Abo Nawras",36.4279647,43.1069803,,,,,,,
"موصل, Turnkey construction",36.4279647,43.1069803,,,,,,,
"موصل, ماركت ألاخوين",36.4279451,43.15634,,,,,,,
"موصل, فيصل الطارف الشمري",36.4278156,43.100224,,,,,,,
"موصل, حلاقة محمد",36.4278099,43.2978204,,,,,,,
"موصل, Mercedes-Benz",36.4277476,43.2970199,,,,,,,
"موصل, بيت التعليم",36.4277237,43.1208236,,,,,,,
"موصل, صيدلية كرم اسباهي حسين",36.4277096,43.1578441,,,,,,,
"موصل, محلة الحديدين",36.4277075,43.188753,,,,,,,
"موصل, كشك حمودي",36.4276013,43.1092586,,,,,,,
"موصل, محمدرشيددوسكي",36.4275698,43.1570945,,,,,,,
"موصل, مكتب جنئ للعقارات والمقاولات العامة",36.4275628,43.0933926,,,,,,,
"موصل, مزعة زيد(ابو اسامه)",36.4275464,43.1890821,,,,,,,
"موصل, بيتنا",36.4275375,43.1593281,,,,,,,
"موصل, مدرسة بعويزة للبنين",36.4275362,43.159322,,,,,,,
"موصل, جامع الرحمن",36.4275316,43.1905362,,,,,,,
"موصل, اسواق عباس الشرابي",36.4275312,43.1089171,,,,,,,
"موصل, ابو سديم اللهيبي",36.4274962,43.0923053,,,,,,,
"موصل, كوافير المثالي",36.427467,43.1589498,,,,,,,
"موصل, أسواق وليد الطائي",36.4274478,43.1089354,,,,,,,
"موصل, مخازن الحسين",36.4274375,43.1949375,,,,,,,
"موصل, مولدة بعويزة",36.4274297,43.1584774,,,,,,,
"موصل, مزرعة الحسين",36.4273835,43.1966845,,,,,,,
"موصل, ازهر الازهيري للسيرميك",36.4272599,43.1636865,,,,,,,
"موصل, حي الملايين الأولى",36.4272326,43.0928136,,,,,,,
"موصل, جامع الانوار المحمدية",36.4272192,43.1074055,,,,,,,
"موصل, مزرعة آل الحاج شاهين",36.4272186,43.1883492,,,,,,,
"موصل, م.ابراهيم السنجري",36.4271722,43.0923013,,,,,,,
"موصل, مسجد الكمرك",36.4268712,43.1047243,,,,,,,
"موصل, دورة دا عيزة",36.4268476,43.2978565,,,,,,,
"موصل, أسواق الشباب الزهراء عليها السلام",36.4268427,43.2983639,,,,,,,
"موصل, محمد العيد",36.4267673,43.0996774,,,,,,,
"موصل, مظيف قبيلة بني هلال",36.4267595,43.2024616,,,,,,,
"موصل, دكان غانم البدراني",36.4267541,43.1632797,,,,,,,
"موصل, مكتب الغزالي لتصوير والاستنساخ",36.4266653,43.2984649,,,,,,,
"موصل, أسواق قتيبة",36.4265661,43.0925867,,,,,,,
"موصل, افران حارث العزاوي",36.4265661,43.0925867,,,,,,,
"موصل, جامع لله ما في السموات والأرض",36.4265145,43.0930416,,,,,,,
"موصل, قصابة الزيتون",36.4264476,43.1060443,,,,,,,
"موصل, مسجد القصواء",36.4264333,43.1462291,,,,,,,
"موصل, مكتب ال راكان",36.425609,43.1055704,,,,,,,
"موصل, سنتر ماشاء الله",36.4254694,43.1587672,,,,,,,
"موصل, مركز صحي سادة وبعويزة",36.4253798,43.1588127,,,,,,,
"موصل, منظومه محمد يوسف لخدمه الانترنيت",36.4252966,43.099434,,,,,,,
"موصل, بيت اخويه يونس",36.4251875,43.1466875,,,,,,,
"موصل, Timmart",36.425122,43.1066387,,,,,,,
"موصل, ريبيتر إسماعيل للخدمات الانترنت",36.4250629,43.297437,,,,,,,
"موصل, خياطة المصطفى",36.424957,43.158907,,,,,,,
"موصل, بيت ابو أيمن",36.4249427,43.0908662,,,,,,,
"موصل, المدرسة الصينية الجديدة",36.4248766,43.1589878,,,,,,,
"موصل, مكتب قيس العدواني",36.4248505,43.1589163,,,,,,,
"موصل, بيت افندي",36.4247496,43.088875,,,,,,,
"موصل, فيلا العباسية السياحية",36.4246793,43.183372,,,,,,,
"موصل, جمعية الماء للاسكان",36.4246561,43.1446665,,,,,,,
"موصل, جامع الحاج موفق شيت",36.4246221,43.0884346,,,,,,,
"موصل, البيت",36.4243086,43.0886089,,,,,,,
"موصل, اسواق الزهراء",36.4242556,43.233234,,,,,,,
"موصل, مركز شرطة بعويزة الجديد",36.424192,43.158716,,,,,,,
"موصل, القريه ساده بعويزه",36.4241322,43.1768148,,,,,,,
"موصل, ابنيان سبهان/حقل دواجن سابقا",36.4240917,43.1544672,,,,,,,
"موصل, مقبرة السادة الأولى",36.4239606,43.160581,,,,,,,
"موصل, مخازن طيبة",36.4239479,43.1544032,,,,,,,
"موصل, Darawish",36.4239113,43.2990119,,,,,,,
"موصل, بيت احمد خضر",36.4238541,43.0887088,,,,,,,
"موصل, AHMET EV",36.4236379,43.0881281,,,,,,,
"موصل, عامر ذنون الجبوري",36.4236291,43.0971145,,,,,,,
"موصل, عقيل محمد تقي",36.4236161,43.1631515,,,,,,,
"موصل, Secondary Baoizh Boys",36.4234941,43.1583316,,,,,,,
"موصل, اسواق زيتونة",36.4234633,43.159138,,,,,,,
"موصل, مجمع السادة الهاشمية",36.4234414,43.0876208,,,,,,,
"موصل, ارض الاجحل",36.4233752,43.1501995,,,,,,,
"موصل, جامع وحسينية يا الله",36.4233656,43.1630892,,,,,,,
"موصل, اسواق مصطفى العدواني",36.4233498,43.1591428,,,,,,,
"موصل, استوديو الاسوار للتصوير",36.4233358,43.1591854,,,,,,,
"موصل, صيدلية شريان الحياة",36.4233338,43.159177,,,,,,,
"موصل, اسواق الكرم",36.4232386,43.0889106,,,,,,,
"موصل, شركة القدس لجزر الدواجن",36.4232177,43.0696511,,,,,,,
"موصل, بيت فائز",36.4231368,43.1505474,,,,,,,
"موصل, موقع مولدات دراويش",36.4230215,43.2985615,,,,,,,
"موصل, مكتب الوارث",36.4229796,43.159648,,,,,,,
"موصل, القيسي",36.4229672,43.2082934,,,,,,,
"موصل, عباس مضمد",36.4229614,43.2340741,,,,,,,
"موصل, مقبرة اورتة خراب",36.4229562,43.2292318,,,,,,,
"موصل, مكتب المنار",36.4229327,43.234103,,,,,,,
"موصل, بيت سعد ابو عزيز",36.422909,43.150159,,,,,,,
"موصل, أسواق ايمن الطائي",36.4229067,43.1611171,,,,,,,
"موصل, مدرسة وانة الإبتدائية للبنات",36.4229067,43.161117,,,,,,,
"موصل, جاسم الدريس",36.4229067,43.161117,,,,,,,
"موصل, بيت احمد ادريس",36.4229067,43.161117,,,,,,,
"موصل, قضاء تلكيف",36.422899,43.1612027,,,,,,,
"موصل, جامع رسول الأعظم",36.4228817,43.2983122,,,,,,,
"موصل, لبيع البانزين والكاز",36.4228399,43.1596764,,,,,,,
"موصل, اسواق الشعب",36.4228315,43.2339035,,,,,,,
"موصل, دار خالد الراوي",36.4228178,43.1512609,,,,,,,
"موصل, حلاقة السفير",36.4228125,43.1589375,,,,,,,
"موصل, محل حمودي لبيع دجاج الحي",36.4227876,43.233996,,,,,,,
"موصل, ثانوية بعويزة للبنات",36.4227588,43.1570626,,,,,,,
"موصل, منظومة البرق لخدمات الانترنت",36.4227584,43.2342042,,,,,,,
"موصل, محل حلاقة عباس",36.4227513,43.1570654,,,,,,,
"موصل, الكندي الثالثة",36.4226875,43.1484375,,,,,,,
"موصل, م. عامر عبد الخالق",36.4226375,43.1484219,,,,,,,
"موصل, مكتب الإيمان للموبايل",36.4225033,43.1595056,,,,,,,
"موصل, مجمع سيد رسل",36.4224375,43.1599375,,,,,,,
"موصل, اسواق الملا",36.4224357,43.2295987,,,,,,,
"موصل, الحاج سامي سعيد",36.4224004,43.1582448,,,,,,,
"موصل, Orta Khrab",36.4223656,43.2343785,,,,,,,
"موصل, حسن الكوياني",36.4223656,43.2343785,,,,,,,
"موصل, بلياردو",36.4223632,43.1599335,,,,,,,
"موصل, السادة المركزية",36.4223197,43.1599825,,,,,,,
"موصل, معمل الفهد للالمنيوم والبلاستك",36.4223183,43.1595992,,,,,,,
"موصل, كوفي شوب العمدة",36.4222901,43.1599272,,,,,,,
"موصل, مسجد الشهيدين عبدالله و صالح چلميران",36.4222517,43.0972541,,,,,,,
"موصل, جامع بصائر الرحمن",36.4222378,43.0916428,,,,,,,
"موصل, مدرسة الدراويش الابتدائية",36.4222327,43.2980149,,,,,,,
"موصل, علي حسين ابو مصطفى",36.4221875,43.1596094,,,,,,,
"موصل, مطحنة الزاهد",36.422187,43.1529353,,,,,,,
"موصل, كازينو روما كافية",36.4221771,43.1595942,,,,,,,
"موصل, ماستر جيم",36.4221768,43.1010953,,,,,,,
"موصل, كوافير حمودي اللهيبي",36.4221669,43.1595521,,,,,,,
"موصل, ثانوية الدراويش للبنين",36.4221507,43.297993,,,,,,,
"موصل, الموصل الرشيدية",36.4220998,43.0927851,,,,,,,
"موصل, مركز البصير للعيون - فرع الموصل",36.4220964,43.1990716,,,,,,,
"موصل, بيت ابو رافع",36.4220879,43.0939733,,,,,,,
"موصل, صيدلية الهبة",36.4220631,43.1597016,,,,,,,
"موصل, مسكن ابو كرم الحيالي",36.4220239,43.0991205,,,,,,,
"موصل, بيت المختار (سلوان سلطان حمريه)",36.4220227,43.0958281,,,,,,,
"موصل, لخدمات النت",36.4220138,43.1556722,,,,,,,
"موصل, قاعة المرحوم عباس علي سعدون",36.4220111,43.2345298,,,,,,,
"موصل, مزرعة الحاج ياسين الجماس",36.4219912,43.186359,,,,,,,
"موصل, منفذ ريان كي",36.4219475,43.0857161,,,,,,,
"موصل, جامع شاهين الرجبو",36.4218352,43.1466444,,,,,,,
"موصل, مولدة الاحبة",36.4217895,43.1446581,,,,,,,
"موصل, Al-Dkhil Mosque",36.4217724,43.197916,,,,,,,
"موصل, مسكن ابو ياسر الخيرو",36.4217616,43.0996829,,,,,,,
"موصل, قاسم حسون",36.4217199,43.1647031,,,,,,,
"موصل, البيت الصحي في الدراويش",36.4217084,43.2987452,,,,,,,
"موصل, حسين محرم الصوفي",36.4217,43.1642009,,,,,,,
"موصل, حسين رشيد حسن",36.4216726,43.1594896,,,,,,,
"موصل, ️ROSES لخدمات الانترنت ️",36.4216446,43.1557824,,,,,,,
"موصل, مقبرة السادة الثانية",36.4215827,43.160642,,,,,,,
"موصل, مجمع السلطان التجاري",36.4214886,43.096503,,,,,,,
"موصل, جامعة الفرقان",36.4213939,43.1235001,,,,,,,
"موصل, قصور العناز",36.421375,43.0937484,,,,,,,
"موصل, اسواق ملا يوسف",36.4213747,43.2335062,,,,,,,
"موصل, بيت (يسر الجبوري)",36.4212857,43.0979555,,,,,,,
"موصل, مدرسة الحوراء الابتدائية للبنات",36.421272,43.1612952,,,,,,,
"موصل, احمد صوفي",36.4212568,43.1670628,,,,,,,
"موصل, جامع وحسينية آل عبدالعزيز",36.4212517,43.1606346,,,,,,,
"موصل, بيت زكي حمو",36.4212469,43.097243,,,,,,,
"موصل, خالد طه الحديدي",36.42121,43.19615,,,,,,,
"موصل, جامع الصواف",36.4212094,43.0984028,,,,,,,
"موصل, حي الملايين",36.4211089,43.0984535,,,,,,,
"موصل, أسواق الساجر",36.4211063,43.0980573,,,,,,,
"موصل, السادة الحيدريه",36.42108,43.1599882,,,,,,,
"موصل, ماركت السادة",36.4210604,43.1600636,,,,,,,
"موصل, ورشة الحافظ المتنقلة",36.4210592,43.1065178,,,,,,,
"موصل, ملا ابو ابراهيم البياتي",36.4210305,43.1598739,,,,,,,
"موصل, مطعم وماكولات الملايين للوجبات السريعة",36.4210192,43.0984608,,,,,,,
"موصل, ايسر ayr.2",36.4210111,43.2312231,,,,,,,
"موصل, ابو سامان",36.4210073,43.2374256,,,,,,,
"موصل, صيدلية محمد احمد جليل",36.4209058,43.1605203,,,,,,,
"موصل, فرع مطحنه",36.420865,43.1550112,,,,,,,
"موصل, ثانوية أورطة خراب للبنين",36.4207721,43.2352048,,,,,,,
"موصل, واثق لخدمات الانترنت",36.4206854,43.2967487,,,,,,,
"موصل, جامع الامام حسن المجتبى",36.4205548,43.2323626,,,,,,,
"موصل, السيد جمعه محمد خليل الحيدري",36.4203474,43.1648333,,,,,,,
"موصل, جامع السادة",36.4203472,43.1645964,,,,,,,
"موصل, اسواق حجي علي",36.4194919,43.1654408,,,,,,,
"موصل, العباس",36.4193694,43.0877224,,,,,,,
"موصل, SALAH NET(منضومة انترنت)",36.4192878,43.0868886,,,,,,,
"موصل, Soprano Mosul شركة الليث",36.4192844,43.1605455,,,,,,,
"موصل, اولاد الحاج شاكرالنائب العبادي",36.419282,43.0991216,,,,,,,
"موصل, اسواق الحسنين",36.4191442,43.1037621,,,,,,,
"موصل, جامع المنيب",36.4191354,43.1828433,,,,,,,
"موصل, ليرات سنتر",36.4190673,43.1028866,,,,,,,
"موصل, حي الكندي الثالثة",36.4190621,43.1368323,,,,,,,
"موصل, بيت غسان رمزي",36.4189371,43.1430769,,,,,,,
"موصل, LED HOMA",36.4189066,43.2973746,,,,,,,
"موصل, ماركت محمد",36.418888,43.2974249,,,,,,,
"موصل, الحفرة",36.4188851,43.1876803,,,,,,,
"موصل, حمودي حلاق",36.4188643,43.2991616,,,,,,,
"موصل, اسواق جنه سهل نينوئ لبيع مواد الغذائيه",36.4188512,43.2990806,,,,,,,
"موصل, مكتب الزهراء للموبايلات",36.4188427,43.2973226,,,,,,,
"موصل, حلاقة نيو لوك",36.4187371,43.1044447,,,,,,,
"موصل, Sameem",36.41871,43.1427409,,,,,,,
"موصل, جامع الشهيد حسن بن علي",36.4186953,43.1525722,,,,,,,
"موصل, مأكولات الملاك",36.4186725,43.106537,,,,,,,
"موصل, اسواق الملايين العائلي",36.4186615,43.1065196,,,,,,,
"موصل, مكتب جنة للعقار",36.4186366,43.1048752,,,,,,,
"موصل, جمال",36.4186334,43.1627012,,,,,,,
"موصل, حي السباحه",36.4186031,43.1873737,,,,,,,
"موصل, اسواق بركات الزهراء",36.418564,43.2977941,,,,,,,
"موصل, عيادة بيطرية",36.4185376,43.2980053,,,,,,,
"موصل, فرن ومخبز عادل والخطاب",36.4184869,43.1050864,,,,,,,
"موصل, كماليات نوني چاو شين",36.418485,43.29798,,,,,,,
"موصل, بيت يعقوب العبيدي",36.4184755,43.1487755,,,,,,,
"موصل, متوسطة الملايين للبنين",36.4183957,43.0926051,,,,,,,
"موصل, مدرسة قبغ تبة المختلطه",36.418373,43.0927569,,,,,,,
"موصل, مزرعة الحاج طالب النائل",36.4181998,43.1989962,,,,,,,
"موصل, مجمع العوالي السكني",36.4181957,43.1125125,,,,,,,
"موصل, بيت ام عباس",36.4181885,43.0925001,,,,,,,
"موصل, احمد الشمري",36.4181802,43.1422735,,,,,,,
"موصل, جامع العوالي",36.4181183,43.1125795,,,,,,,
"موصل, ال نافولي",36.4181029,43.1896665,,,,,,,
"موصل, مكتب السيد للمقاولات العامة",36.41807,43.1098735,,,,,,,
"موصل, بيت اسعد",36.4180684,43.1538966,,,,,,,
"موصل, مجمع الحدباء ستي",36.4179653,43.1942454,,,,,,,
"موصل, اسواق مصطفى",36.4179436,43.1909955,,,,,,,
"موصل, أسواق عبود",36.4179246,43.190957,,,,,,,
"موصل, بيت كمال حمو",36.4178712,43.0946182,,,,,,,
"موصل, مجمع اللطيفية",36.4177568,43.1914623,,,,,,,
"موصل, Hasanayn Mosque",36.4177538,43.1059598,,,,,,,
"موصل, مركز صحي الدراويش",36.4177295,43.2929624,,,,,,,
"موصل, حي جمعية. المولدات",36.4176963,43.1144191,,,,,,,
"موصل, مولدة السادة",36.4176617,43.166742,,,,,,,
"موصل, حي الملائين",36.4176237,43.1046633,,,,,,,
"موصل, ابو سعد المولى",36.417591,43.139158,,,,,,,
"موصل, اسواق حديد",36.4175463,43.1427433,,,,,,,
"موصل, أسواق ابو محمود قريب",36.4175256,43.1426517,,,,,,,
"موصل, مزرعة فيصل حبش",36.4174333,43.014651,,,,,,,
"موصل, بيت نجيب ابو فراس",36.4174294,43.1482299,,,,,,,
"موصل, مكتب الوردة البيضاء للعقارات",36.4173935,43.1614801,,,,,,,
"موصل, حسن",36.417362,43.1461958,,,,,,,
"موصل, حقل دواجن",36.4173448,43.0774952,,,,,,,
"موصل, بستان شيال العلم",36.4172542,43.0862963,,,,,,,
"موصل, علي نزار",36.417171,43.1505388,,,,,,,
"موصل, ابو يوسف الطائي",36.4171643,43.0890813,,,,,,,
"موصل, ملعب شهداء الشبك",36.4171141,43.2892459,,,,,,,
"موصل, مصطفى الجعفر",36.4170602,43.1536796,,,,,,,
"موصل, مصطفى لخدمات الانترنيت",36.4170526,43.1012683,,,,,,,
"موصل, مظفر ابو بنان",36.4170154,43.1537484,,,,,,,
"موصل, مدرسة عماد الدين الزنكي الابتدائية للبنين",36.4170105,43.0879937,,,,,,,
"موصل, ارض الكندي",36.4169997,43.1378539,,,,,,,
"موصل, مدرسة بيش يطاغ الابتدائية",36.4169938,43.0879223,,,,,,,
"موصل, صفوان عبدالكريم",36.4169497,43.151661,,,,,,,
"موصل, أسواق المولئ",36.4169322,43.0893667,,,,,,,
"موصل, al adel association for lands",36.4169141,43.1515678,,,,,,,
"موصل, قطعة 71 محمد عامر",36.4169118,43.1515877,,,,,,,
"موصل, حلاقت حمودي",36.4169041,43.0909258,,,,,,,
"موصل, شركة المنصور العامة للمقاولات الانشائية في الموصل",36.4168216,43.1072365,,,,,,,
"موصل, جامع الحاجة حسنية",36.4168049,43.0893401,,,,,,,
"موصل, كافتريا شهداء الشبك",36.4167741,43.2893306,,,,,,,
"موصل, زكرياحسام",36.4167453,43.1531489,,,,,,,
"موصل, اسواق ابو فواز",36.4167355,43.1495544,,,,,,,
"موصل, بيت استاذ مجيد",36.4167348,43.1483164,,,,,,,
"موصل, ابو علي",36.4167016,43.1569869,,,,,,,
"موصل, ابو وسام الكندي",36.4166867,43.1534228,,,,,,,
"موصل, بيت ابو ذنون",36.4166651,43.1484479,,,,,,,
"موصل, جمعية الاسر الصناعية",36.416636,43.1460302,,,,,,,
"موصل, كوافير محمد للرجال",36.4166233,43.1498488,,,,,,,
"موصل, انترنيت العراقي",36.4166125,43.1498594,,,,,,,
"موصل, طلبية الكندي الثانية",36.4165903,43.1460127,,,,,,,
"موصل, مكتب عقارات اسوار الحدباء",36.4164907,43.1451963,,,,,,,
"موصل, زياد ابو مصطفى",36.4164097,43.1483856,,,,,,,
"موصل, دار سيف الدين آل علوان",36.4163659,43.1495678,,,,,,,
"موصل, حي زيونة",36.4163341,43.1996192,,,,,,,
"موصل, مجمع الشهيد حميد زينل",36.4163125,43.2836875,,,,,,,
"موصل, الفلاح الثانية بعد الخندق",36.4163125,43.1743125,,,,,,,
"موصل, مكتب ابوعمار (لخدمات الانترنت)",36.4163023,43.0882592,,,,,,,
"موصل, مولدة الملايين الاولى",36.4162919,43.0993295,,,,,,,
"موصل, ميني ماركت الجود",36.4162674,43.150185,,,,,,,
"موصل, مزرعة الصٰاحي",36.4162634,43.2601037,,,,,,,
"موصل, Mostafa Home",36.4162289,43.1479395,,,,,,,
"موصل, بيت ابو داليا",36.4162164,43.1464484,,,,,,,
"موصل, وردة اسطنبول",36.4162129,43.1464527,,,,,,,
"موصل, مخزن اكرم علو",36.4161743,43.0133739,,,,,,,
"موصل, مركز آشور للمحاماة والأستشارات القانونية",36.4161541,43.1087567,,,,,,,
"موصل, غسل وتشحيم دراويش",36.4161423,43.2875939,,,,,,,
"موصل, كافية العسل",36.4160718,43.1463512,,,,,,,
"موصل, مكتب البساتين للعقار",36.416016,43.1968635,,,,,,,
"موصل, مولدة الجود",36.4159904,43.1466533,,,,,,,
"موصل, ماهر البدراني",36.4159468,43.1490545,,,,,,,
"موصل, جامع نضرة النعيم",36.4159428,43.0969157,,,,,,,
"موصل, مازن محمود",36.4159375,43.0969375,,,,,,,
"موصل, منحل محمد قاسم الياس",36.415937,43.286235,,,,,,,
"موصل, عمارة النور",36.4158865,43.1463612,,,,,,,
"موصل, عمر ابو طه الزيدي",36.4158682,43.1922319,,,,,,,
"موصل, مجمع النور السكني",36.4158261,43.1206869,,,,,,,
"موصل, مقبرة السادة الثالثة",36.4157589,43.1684197,,,,,,,
"موصل, جامع الرحمة",36.4156944,43.0918129,,,,,,,
"موصل, المصباح للتأسيسات الكهربائية",36.4156574,43.1625772,,,,,,,
"موصل, كوفي الملوك",36.4156394,43.1013031,,,,,,,
"موصل, حي الفلاح الثانية",36.4155716,43.1793326,,,,,,,
"موصل, ادم كافيه",36.415567,43.1627069,,,,,,,
"موصل, جامع عباد الرشيد",36.4155635,43.1092348,,,,,,,
"موصل, بيت احمد ابو ابراهيم",36.415553,43.1930712,,,,,,,
"موصل, مكتب الاصدقاء للعقار",36.4155395,43.1454419,,,,,,,
"موصل, شركة المنصور العامة للمقاولات الانشائية /شعبة مشاريع نينوى",36.415488,43.1058555,,,,,,,
"موصل, قرية السويفات",36.4154845,43.1240989,,,,,,,
"موصل, مجموعة مدارس الاوائل الاهلية",36.4154656,43.1174487,,,,,,,
"موصل, حلاقه حسن الامير",36.4154617,43.1626614,,,,,,,
"موصل, New Left water treatment plant",36.4153972,43.0161588,,,,,,,
"موصل, تجهيزات الحمودات",36.4153189,43.1455933,,,,,,,
"موصل, Alawael British Private International School in Mosul",36.4152809,43.1175162,,,,,,,
"موصل, الشركة الوطنية لصناعات الاثاث المنزلي",36.4152499,43.1006301,,,,,,,
"موصل, ثانوية الاوائل الاهلية",36.4152156,43.1167685,,,,,,,
"موصل, أمزون تيك",36.4152079,43.1534791,,,,,,,
"موصل, ابو اسحاق للعقار",36.4151535,43.1095869,,,,,,,
"موصل, مولدة محمد طلال ٢",36.4151238,43.1128759,,,,,,,
"موصل, مزرعه ابو علاء عامر العبيدي",36.4150653,43.1649775,,,,,,,
"موصل, مولدة القمة",36.4149932,43.1129248,,,,,,,
"موصل, شركة العلاء بلاست للصناعات البلاستكية - Alaa Plast Company",36.414963,43.0996063,,,,,,,
"موصل, مكتب القبس 1",36.4149562,43.1453594,,,,,,,
"موصل, مزرعة الحاج عامر العبيدي",36.4149557,43.1647995,,,,,,,
"موصل, قاعة دجلة",36.4149518,43.0926088,,,,,,,
"موصل, جمعية الرعاية الرابعة",36.4149279,43.1955935,,,,,,,
"موصل, Mad concrete - ماد کونکریت",36.414889,43.1172764,,,,,,,
"موصل, حج قاسم",36.4147498,43.1574284,,,,,,,
"موصل, ابو عمر الكهربائي",36.4146578,43.0921652,,,,,,,
"موصل, جامع المدية المنورة",36.4145597,43.1589665,,,,,,,
"موصل, بيت أبو راكان العبيدي",36.4143702,43.1652594,,,,,,,
"موصل, معمل مبردات الاندلس",36.4136244,43.0991916,,,,,,,
"موصل, Dragon gym",36.4135853,43.1101873,,,,,,,
"موصل, جمعية النور",36.4135736,43.1463778,,,,,,,
"موصل, قاعة طل القمر",36.4134892,43.110146,,,,,,,
"موصل, عطاف الحداد",36.4134362,43.1110117,,,,,,,
"موصل, الشركة العامة لمعدات الاتصالات والقدرة/ مقر الادارة العامة + مصنع الكندي",36.4133622,43.1036477,,,,,,,
"موصل, Al ITQAN COMPANY شركة الإتقان",36.41333,43.09885,,,,,,,
"موصل, مقبرة القبة",36.4133031,43.0086107,,,,,,,
"موصل, شركة الزخرف للصناعات البلاستيكية",36.413246,43.099447,,,,,,,
"موصل, دار السيد ذنون النعيمي ابو ليث",36.4132267,43.0863693,,,,,,,
"موصل, الرشيديا القطاع السدس",36.4130856,43.0876524,,,,,,,
"موصل, حي العوجة",36.4130732,43.0280396,,,,,,,
"موصل, جامع سدرة المنتهى",36.4129425,43.1511402,,,,,,,
"موصل, اسواق الشجرة",36.4129037,43.1103677,,,,,,,
"موصل, .",36.4128773,43.0275846,,,,,,,
"موصل, حلاقة سالم المعماري",36.4128238,43.0878131,,,,,,,
"موصل, اسواق يونس السيد",36.4128093,43.0879075,,,,,,,
"موصل, اسواق الجواهر",36.4127389,43.1104868,,,,,,,
"موصل, حي الكندي الثانية",36.4127387,43.1474857,,,,,,,
"موصل, بيت محمود",36.412734,43.1420268,,,,,,,
"موصل, Eyes Pharmacy",36.412641,43.1106654,,,,,,,
"موصل, Dr. Youssef Clinic",36.4126358,43.1107629,,,,,,,
"موصل, أسواق عبوس",36.4126287,43.0906867,,,,,,,
"موصل, جمعية رجال الأعمال (كوبكلية)",36.4125748,43.1783204,,,,,,,
"موصل, Al Mkdad mosque",36.412546,43.1908708,,,,,,,
"موصل, أسواق رضوان العيدان",36.4125228,43.0873033,,,,,,,
"موصل, برج محمد يوسف للانترنيت",36.4125214,43.0823793,,,,,,,
"موصل, مكتبة تواصل لخدمات الانترنت",36.4124908,43.1128931,,,,,,,
"موصل, اسوق النرجس",36.4124893,43.0532795,,,,,,,
"موصل, محمد فاضل محمد",36.4124585,43.0924567,,,,,,,
"موصل, محلة الجبور Abo Zamn",36.412413,43.0925812,,,,,,,
"موصل, بيت ابو محمود",36.4124122,43.1441996,,,,,,,
"موصل, محلات علي حسين عوني",36.4123467,43.0714582,,,,,,,
"موصل, العراق موصل بيت حاتم العلي",36.4123404,43.1448035,,,,,,,
"موصل, أسواق فارس الجبوري",36.412322,43.0923149,,,,,,,
"موصل, ماركت الحجي | Al-hajj Market",36.4122786,43.1472728,,,,,,,
"موصل, بشار الممرض",36.4122759,43.0833702,,,,,,,
"موصل, سلوم للتجهيزات الرياضية",36.4122438,43.1145236,,,,,,,
"موصل, معمل الوتد للبلاستيك والسلايت التركي",36.4121683,43.1473679,,,,,,,
"موصل, مزرعة عباس شريخانلي",36.4121547,43.0130457,,,,,,,
"موصل, دار السيد احمد محمد الحديدي",36.4121437,43.0722498,,,,,,,
"موصل, معمل بلاستك أبواب وشبابيك",36.4121396,43.147416,,,,,,,
"موصل, ماركت عمو موفق",36.41213,43.1124094,,,,,,,
"موصل, منزل علي محمود مصطفى",36.4121291,43.071605,,,,,,,
"موصل, متوسطة جعفر بن أبي طالب للبنين",36.4121273,43.1138778,,,,,,,
"موصل, مجمع دكتور سعد الله(3)",36.4121222,43.1710257,,,,,,,
"موصل, حي البقدونس",36.4121215,43.0535284,,,,,,,
"موصل, مولدة خالد سليم",36.4120781,43.0710549,,,,,,,
"موصل, Mine",36.4120522,43.1420144,,,,,,,
"موصل, مخبز بيروت",36.4120496,43.1124464,,,,,,,
"موصل, شقة عبود والولد",36.4120436,43.0871786, Lng: 43.11067389999999,,,,,,
"موصل, ملعب حي العربي سابقاً",36.4120079,43.1131112,,,,,,,
"موصل, مسجد التقوى",36.4119601,43.1860363,,,,,,,
"موصل, بيتنا المتواضع",36.4119095,43.0850184,,,,,,,
"موصل, حلاقة ابو العز",36.4118992,43.1146471,,,,,,,
"موصل, اسواق جميل النعيمي",36.4118875,43.0875781,,,,,,,
"موصل, ثانوية أبو محمد",36.4118659,43.2021786,,,,,,,
"موصل, بركة الرحمن",36.4118554,43.0875695,,,,,,,
"موصل, بيتنا الجميله",36.4118546,43.0858667,,,,,,,
"موصل, بيت جميل ابو وسيم",36.4118447,43.0858624,,,,,,,
"موصل, الوسيم",36.4117469,43.1496229,,,,,,,
"موصل, 0",36.4117303,43.1848088,,,,,,,
"موصل, اسواق فهد الظويهر",36.4116884,43.0887874,,,,,,,
"موصل, الحاج محمود الشرابي",36.4116852,43.0849548,,,,,,,
"موصل, بيت ابوعلي",36.4116512,43.2532127,,,,,,,
"موصل, BZ Internet",36.4116404,43.1604324,,,,,,,
"موصل, حي الشرابيين",36.4116165,43.0840378,,,,,,,
"موصل, مطعم فلافل شريخان",36.4116112,43.0713454,,,,,,,
"موصل, برج سيف للانترنت",36.4115972,43.0714155,,,,,,,
"موصل, مكتب صفا",36.411574,43.0874799,,,,,,,
"موصل, محل ابو عماد",36.4115595,43.089931,,,,,,,
"موصل, جامع العركوب",36.4115544,43.1603482,,,,,,,
"موصل, موكب انصار الحجة (ال عيسى)",36.4115324,43.1633892,,,,,,,
"موصل, موقع مدرسة المبدعون الجديد",36.4114709,43.1202911,,,,,,,
"موصل, مكتب صباح",36.4114516,43.0900787,,,,,,,
"موصل, حسين خالد الدركزلي",36.4114367,43.0861842,,,,,,,
"موصل, توماس",36.4113795,43.0706126,,,,,,,
"موصل, مكتب سنتر زوم",36.4113337,43.0900891,,,,,,,
"موصل, زيونه للتسوق العائلي",36.4113003,43.1163123,,,,,,,
"موصل, أسواق ريماس",36.4112973,43.1874936,,,,,,,
"موصل, سيد محمد الاعرجي",36.411271,43.071716,,,,,,,
"موصل, محل ابو محمد إبراهيم",36.4112659,43.0849765,,,,,,,
"موصل, Sayyid Lar",36.4112643,43.1521215,,,,,,,
"موصل, نكتل ابن العراق",36.4112643,43.0885422,,,,,,,
"موصل, اسواق معاذ",36.4112609,43.0873805,,,,,,,
"موصل, محلات صمد الهندسيه للعدد اليدويه والتأسيسات الكهربائيه والصحيات",36.4112198,43.1463451,,,,,,,
"موصل, حي الفلاح الثانية",36.4112192,43.1895342,,,,,,,
"موصل, عبدالاله فاضل البياتي",36.4112178,43.0724985,,,,,,,
"موصل, منحل الأمين",36.4112067,43.1625969,,,,,,,
"موصل, حسين",36.4111844,43.0873556,,,,,,,
"موصل, كاظم مصطفى",36.4111637,43.0728231,,,,,,,
"موصل, Diwan complex",36.4111472,43.1182959,,,,,,,
"موصل, بيت ابو عواد",36.4111435,43.0912304,,,,,,,
"موصل, هاشم الجحيشي",36.4111166,43.0828627,,,,,,,
"موصل, حلاقة خالد للرجال",36.4111116,43.0872728,,,,,,,
"موصل, مدرسة المعالي للبنين والبنات",36.4111092,43.1140395,,,,,,,
"موصل, سرمد هونداي",36.4111092,43.0888268,,,,,,,
"موصل, حي الإعلاميين",36.411101,43.1633442,,,,,,,
"موصل, كوافير ابن المولى",36.411101,43.1633442,,,,,,,
"موصل, Abohasin markets",36.4110849,43.1150995,,,,,,,
"موصل, أسواق المولى",36.411069,43.1633355,,,,,,,
"موصل, Ghaith Net Office",36.4110382,43.1151519,,,,,,,
"موصل, El Hakim Cami",36.4110357,43.0735511,,,,,,,
"موصل, محطة كهرباء القبة",36.4110234,43.0159552,,,,,,,
"موصل, مدرسة شريخان عليا",36.4110099,43.0739337,,,,,,,
"موصل, Yukarı Şerihan İlk okulu",36.4110065,43.0739357,,,,,,,
"موصل, شبكة مينا لخدمات الانترنت",36.41098,43.191125,,,,,,,
"موصل, House yasir abdullah",36.4109796,43.1477,,,,,,,
"موصل, Rose artist shop مشتل روز ارتيست",36.4109778,43.1113108,,,,,,,
"موصل, تكية الملاجاسم /السادة النعيم",36.4109524,43.1583602,,,,,,,
"موصل, ابوحارث الحريثي",36.410926,43.087836,,,,,,,
"موصل, جامع الورشان",36.410896,43.0900573,,,,,,,
"موصل, اسواق الأعرجي",36.4108398,43.1459697,,,,,,,
"موصل, ملعب ومقهى رواد بيسان المغلق",36.4108377,43.1037074,,,,,,,
"موصل, صيدلية الشهيرة",36.4108272,43.0872235,,,,,,,
"موصل, جامع سيدنا علي بن ابي طالب",36.4108156,43.20093,,,,,,,
"موصل, مكتب اوراق الشجر للعقار",36.4108077,43.1459802,,,,,,,
"موصل, مخازن بالازو للسراميك والبورسلين 2",36.4107751,43.2684789,,,,,,,
"موصل, وعد الله سيمى",36.4107611,43.0724988,,,,,,,
"موصل, شركة الفردوس للسياحة والسفر",36.4107576,43.0872056,,,,,,,
"موصل, مزرعه سيد احمد",36.4107365,43.0506821,,,,,,,
"موصل, ...",36.4106875,43.1494375,,,,,,,
"موصل, مكتب القاضيةللتجاره العقارات",36.4106616,43.1493754,,,,,,,
"موصل, جامع _الدكتور مقبل علي",36.4106404,43.1465444,,,,,,,
"موصل, مدرسة عمرو بن العاص الابتدائية",36.4106329,43.1034539,,,,,,,
"موصل, مجمع سعد الله الخير",36.4106322,43.1734527,,,,,,,
"موصل, مولدة الاخلاص",36.4106234,43.0825113,,,,,,,
"موصل, محمد نزار كندي ثانية",36.4106186,43.1493337,,,,,,,
"موصل, كندي الثانية دكتور صابر",36.4106186,43.1493337,,,,,,,
"موصل, MKG",36.410612,43.112467,,,,,,,
"موصل, Shahid Hassan Mosque",36.4105988,43.1147436,,,,,,,
"موصل, قطاع السادس",36.4105811,43.084419,,,,,,,
"موصل, شركة ميرسين للمواد الغذائية المجمدة",36.4105795,43.1622744,,,,,,,
"موصل, ماركت الفلاح الثانية",36.4105655,43.1922438,,,,,,,
"موصل, اسواق الرواد",36.410532,43.1115691,,,,,,,
"موصل, خدمات المتوكل",36.4105269,43.1460803,,,,,,,
"موصل, كافيه برونز",36.4105162,43.0868207,,,,,,,
"موصل, شركة الحمزة لصب الكونكريت الجاهز",36.4105055,43.1182479,,,,,,,
"موصل, تجهيزات مهند",36.4104873,43.1132353,,,,,,,
"موصل, شركة ارض الربيعين للتجارة العامة والاستثمارات الزراعية",36.4104583,43.0259857,,,,,,,
"موصل, صيدلية البيروني",36.4104548,43.1150801,,,,,,,
"موصل, صيدلية الديمة",36.4104524,43.1460508,,,,,,,
"موصل, صيدلية الدرر",36.4104436,43.1132561,,,,,,,
"موصل, ابو علي للعقار",36.4104392,43.1532095,,,,,,,
"موصل, شركة آلفردوس",36.4104375,43.0873281,,,,,,,
"موصل, مأكولات الباچچي",36.4104342,43.11459,,,,,,,
"موصل, Haj Idriss Mosque",36.4104303,43.0873147,,,,,,,
"موصل, كرم ياسين",36.4104225,43.0284175,,,,,,,
"موصل, اسواق العائله",36.4104217,43.1148617,,,,,,,
"موصل, بيت مختار",36.4104149,43.0721901,,,,,,,
"موصل, ساحة ابوياسر للمواد الأنشائية",36.4104052,43.1459863,,,,,,,
"موصل, شيخ عبدالحي",36.4104044,43.027828,,,,,,,
"موصل, اسواق ابو سيف",36.4103809,43.1098839,,,,,,,
"موصل, مهند الحلاق",36.4103691,43.0894829,,,,,,,
"موصل, مولدة اولاد ياسر / ابو عمر",36.4103669,43.114172,,,,,,,
"موصل, العربي لبيع الاحذية والشحاطات والحقائب",36.4103651,43.1132932,,,,,,,
"موصل, مكتب حسن لخدمات الانترنيت",36.4103604,43.1459346,,,,,,,
"موصل, افران البركة",36.4103566,43.1136235,,,,,,,
"موصل, جامع الرحمن",36.4103518,43.1106449,,,,,,,
"موصل, مكتب بردى للعقارات",36.4103427,43.1133037,,,,,,,
"موصل, محل كندي الثانيه",36.4103103,43.1458846,,,,,,,
"موصل, حسين مؤيد للموبايلات",36.4103003,43.0709652,,,,,,,
"موصل, محمد نزار / ابو عبدالله",36.4102751,43.1489673,,,,,,,
"موصل, مولدة الرشدية/ القطاع الخامس",36.410174,43.0874344,,,,,,,
"موصل, ابو ابراهيم",36.4101235,43.1031435,,,,,,,
"موصل, برج قطاع السادس للانترنت",36.4100998,43.0811386,,,,,,,
"موصل, افران طه",36.4100725,43.1136849,,,,,,,
"موصل, مكتب الغريب",36.4100513,43.0867553,,,,,,,
"موصل, مزرعة مهدي زهير",36.410032,43.0555,,,,,,,
"موصل, بيت ابو جمال",36.4100187,43.1830982,,,,,,,
"موصل, اسواق ابو جبل",36.4100133,43.0817417,,,,,,,
"موصل, احمد عواد المعماري",36.410013,43.051623,,,,,,,
"موصل, ابو مصطفى فني سبالت وتكيف",36.4100083,43.0912774,,,,,,,
"موصل, مكتب الأخوين لتجارة العقارات",36.409984,43.1470013,,,,,,,
"موصل, اسواق طيبة",36.4099454,43.0886183,,,,,,,
"موصل, اسواق المزرعة",36.409943,43.1557675,,,,,,,
"موصل, كافتيريا ليالي الموصل",36.40983,43.0889885,,,,,,,
"موصل, مكتب MCP",36.4098291,43.1135524,,,,,,,
"موصل, دير ماركوركيس",36.409827,43.1199032,,,,,,,
"موصل, مقبرة مار كوركيس",36.4098162,43.1191107,,,,,,,
"موصل, مجمع مدارس المبدعون الأهلية",36.409784,43.121082,,,,,,,
"موصل, الخيرو",36.4097805,43.1081523,,,,,,,
"موصل, محطه كهرباء خواجه خليل.",36.4097696,43.0880988,,,,,,,
"موصل, مكتب المتوكل للاستنساخ والتصوير/بأدارة ابوعبدالله",36.4097534,43.0881004,,,,,,,
"موصل, مكتب هالك للمنظفات",36.4097513,43.1021087,,,,,,,
"موصل, مكتب الأصدقاء",36.4097354,43.0867531,,,,,,,
"موصل, مكتب الظويهر للعقارات",36.4097337,43.0895776,,,,,,,
"موصل, بيت الشيخ علي عبد القادر السبعاوي",36.4097262,43.0896079,,,,,,,
"موصل, عيادة الدكتور محي الدين محمد",36.4097262,43.0896079,,,,,,,
"موصل, نشوان الحلاق",36.4097262,43.0896079,,,,,,,
"موصل, مكتب حمودي العزو الموبايلات",36.4097262,43.0896079,,,,,,,
"موصل, امير هذال محمود",36.4097262,43.0896078,,,,,,,
"موصل, نمبر وان",36.4097262,43.0896078,,,,,,,
"موصل, غزوان الزبيدي",36.4097262,43.0896078,,,,,,,
"موصل, حسين خالد العبادي",36.4097262,43.0896078,,,,,,,
"موصل, شقة ابو ود الولائي",36.4097262,43.0896078,,,,,,,
"موصل, مدرسة الشهيدة هناء محمد صالح الإبتدائية للبنات",36.4097262,43.0896078,,,,,,,
"موصل, اسواق ابو رهف المولى",36.4097262,43.0896078,,,,,,,
"موصل, ذي قار",36.4097262,43.0896078,,,,,,,
"موصل, شهاب",36.4097262,43.0896078,,,,,,,
"موصل, اسواق ماشاء الله",36.4097262,43.0896078,,,,,,,
"موصل, مكتب احمد العبادي",36.4097198,43.086775,,,,,,,
"موصل, يشار ابو احمد",36.4097156,43.0728225,,,,,,,
"موصل, نجارة الغفران",36.4097015,43.086731,,,,,,,
"موصل, Rashidiyah",36.4096929,43.0895972,,,,,,,
"موصل, حي بيسان",36.409678,43.1073616,,,,,,,
"موصل, محلات سبهان الربيعي",36.4096637,43.0892285,,,,,,,
"موصل, جامع النعمان بن ثابت",36.4096524,43.102802,,,,,,,
"موصل, مكتب شهيد محمد",36.4096463,43.0717157,,,,,,,
"موصل, عباس ابو قمر",36.4096448,43.0724271,,,,,,,
"موصل, ملعب بيسان",36.4096195,43.109735,,,,,,,
"موصل, ابو احمد",36.4096132,43.0277586,,,,,,,
"موصل, مكتب MBC4",36.4096128,43.1028137,,,,,,,
"موصل, محمد صالح لتبديل الدهون",36.4096125,43.0905781,,,,,,,
"موصل, كافي الباشا",36.4096122,43.0902633,,,,,,,
"موصل, ليث ابو بريكات",36.4096051,43.0905808,,,,,,,
"موصل, عيادة الدكتور أمثل طه الطائي",36.4095611,43.0890114,,,,,,,
"موصل, جامع هديِّ المُصطفى",36.4095536,43.1862376,,,,,,,
"موصل, اراضي التقنية",36.4095126,43.1788505,,,,,,,
"موصل, Shafei Mosque",36.4094899,43.0946721,,,,,,,
"موصل, شلة فريدو",36.4094871,43.0867789,,,,,,,
"موصل, دوشمه نوار ابو حسن النعيمي",36.4094844,43.0934446,,,,,,,
"موصل, مدرسة بيسان الابتدائية",36.4094821,43.1022963,,,,,,,
"موصل, ورشة حسين فوزي لتصليح السيارات",36.4094804,43.0920671,,,,,,,
"موصل, البيت الكندي",36.4094535,43.1450719,,,,,,,
"موصل, بسام الصباغ",36.4094512,43.0931845,,,,,,,
"موصل, ابو سلام كورش",36.4094381,43.0286475,,,,,,,
"موصل, روضة وحضانة الكنز الاهلية",36.4094283,43.1087515,,,,,,,
"موصل, ثانوية بيسان الحكومي",36.4094169,43.1014688,,,,,,,
"موصل, كنكارلخ",36.409414,43.0285277,,,,,,,
"موصل, مولدة بركة الرحمن",36.4094139,43.1116088,,,,,,,
"موصل, جامع محمود",36.409396,43.0833651,,,,,,,
"موصل, نوري الحداد لسمكرة السيارات",36.4093953,43.0927598,,,,,,,
"موصل, صباغة المولى",36.4093917,43.0936285,,,,,,,
"موصل, حلاقة فهد",36.4093909,43.0908921,,,,,,,
"موصل, جمهورية ال افندي",36.4093807,43.0939807,,,,,,,
"موصل, موفق عباس",36.409362,43.1070635,,,,,,,
"موصل, حي زيونة",36.4093558,43.207533,,,,,,,
"موصل, جامع الاحسان",36.4093485,43.162777,,,,,,,
"موصل, مخبز الرزان",36.4093378,43.2082797,,,,,,,
"موصل, مركز تدريب نينوى",36.4093291,43.1942893,,,,,,,
"موصل, مولد زكريا اركان شريف ٣",36.4092908,43.1603919,,,,,,,
"موصل, مركز ريان روني للرشاقة وبناء الاجسام",36.4092908,43.0905887,,,,,,,
"موصل, Ph Bayda",36.4092652,43.1454472,,,,,,,
"موصل, ورشة وسام وباسل",36.4092599,43.0908009,,,,,,,
"موصل, دار الاستاذ/صالح محمد خليل",36.409236,43.0880451,,,,,,,
"موصل, حاتم عواد",36.4091972,43.0907872,,,,,,,
"موصل, مكتب الهاشمي للموبايل",36.4091826,43.093527,,,,,,,
"موصل, مكتب ابو شهد",36.4091535,43.1544129,,,,,,,
"موصل, Al Ghabat gas station",36.4091464,43.1098456,,,,,,,
"موصل, معرض الموصلي",36.4091428,43.1047485,,,,,,,
"موصل, حلاقة ابو شوارب",36.4091203,43.0940221,,,,,,,
"موصل, Nation Mohamed Jama",36.4090945,43.0919868,,,,,,,
"موصل, رشيديه محلات ألمنيوم و بلاستك",36.4090917,43.0941377,,,,,,,
"موصل, احمد المولى",36.4090844,43.1659072,,,,,,,
"موصل, محطة الانواء الجوية",36.4090728,43.1108581,,,,,,,
"موصل, سالم الفيتر",36.4090661,43.0923159,,,,,,,
"موصل, اسواق اسامة",36.409058,43.0941711,,,,,,,
"موصل, محل ياسر أبو تركي الفيتر",36.409021,43.0914051,,,,,,,
"موصل, مكتب خدمات الكومبيوتر الاستنساخ والتصوير",36.4090096,43.1890912,,,,,,,
"موصل, مسجد الفلاح الثانية",36.4090096,43.1890912,,,,,,,
"موصل, Ali Layth",36.4089972,43.1454434,,,,,,,
"موصل, ملعب حيو حربا",36.408984,43.1180073,,,,,,,
"موصل, ملعب شهداء شريخان",36.4089751,43.0709864,,,,,,,
"موصل, الشرق الأوسط للاستثمارات العقارية",36.4089388,43.1089826,,,,,,,
"موصل, مكتب المهندس لخدمات الانترنت",36.4089302,43.0821561,,,,,,,
"موصل, موقع مزارع الحدباء",36.4088945,43.1536846,,,,,,,
"موصل, مزرعة الچقمقچي",36.4088572,43.1518252,,,,,,,
"موصل, اطرك من ئوني",36.4088245,43.106765,,,,,,,
"موصل, اسواق جنكيز",36.4087124,43.1536559,,,,,,,
"موصل, جامع انوار طيبة",36.4086929,43.1528416,,,,,,,
"موصل, فواكه وخضراوات الرافدين",36.408609,43.112458,,,,,,,
"موصل, جامع كرم الرحمن",36.4085047,43.2001405,,,,,,,
"موصل, عثمان الكهربائي",36.40849,43.122914,,,,,,,
"موصل, منظومة البرق لخدمات الانترنت 2",36.4084149,43.2551865,,,,,,,
"موصل, The Iraqi Institution for Development - المؤسسة العراقية للتنمية",36.4083674,43.1045036,,,,,,,
"موصل, مكتب مختار حي بيسان",36.4083328,43.1047692,,,,,,,
"موصل, حي زيونة الأولى",36.4076624,43.2010244,,,,,,,
"موصل, مكتب البسمة للعقار",36.407573,43.1043741, Lat: 36.3154845, Lng: 43.2132998,,,,,
"موصل, منفذ رزان الفارس",36.4075641,43.1045157,,,,,,,
"موصل, عمر",36.4075535,43.1887186,,,,,,,
"موصل, مكتب سما بيسان للعقارات",36.4075067,43.1041706,,,,,,,
"موصل, علاء حساني وأولاده - مركز مبيعات أصباغ الأهلية",36.4074964,43.1038076,,,,,,,
"موصل, معسكر كندي",36.4074886,43.1358082,,,,,,,
"موصل, مكتب مختار حي العربي",36.4074824,43.1160563,,,,,,,
"موصل, بيت آبو آدم",36.4074477,43.1885712,,,,,,,
"موصل, مكتب الشيخ النائب حسان ثابت العباسي",36.4074093,43.1039344,,,,,,,
"موصل, دار الحمدسليمان",36.407391,43.2003411,,,,,,,
"موصل, مؤسسة فضولي للثقافة والتعليم",36.4073664,43.1038288,,,,,,,
"موصل, حي الفنانين نبض الروح",36.4073642,43.0435166,,,,,,,
"موصل, خطاب العبيدي",36.407355,43.0999305,,,,,,,
"موصل, خطاب ابو عبدالله",36.4073402,43.0999976,,,,,,,
"موصل, اراضي موظفي الالبان المميزة",36.4072897,43.1101413,,,,,,,
"موصل, موصل الرشيدية الشارع العام",36.4072699,43.103568,,,,,,,
"موصل, صيدلية جبل الجودي",36.4072342,43.0870543,,,,,,,
"موصل, لحم بعجين عنتاب",36.4071885,43.0826528,,,,,,,
"موصل, اسواق ابو ابراهيم",36.4071839,43.0989038,,,,,,,
"موصل, عبيد",36.4071794,43.1905518,,,,,,,
"موصل, همبركر هاوس",36.4071725,43.1166591,,,,,,,
"موصل, متوسطة صنعاء",36.4071189,43.1178064,,,,,,,
"موصل, روضة العربي للأطفال",36.4071189,43.1178064,,,,,,,
"موصل, مشتل الحدباء",36.4071189,43.1178064,,,,,,,
"موصل, مصلح اطارات بنجرجي",36.4071189,43.1178064,,,,,,,
"موصل, متنزه حي العربي",36.4071189,43.1178064,,,,,,,
"موصل, مولدة المشتل",36.4071009,43.116634,,,,,,,
"موصل, Al Sajer For Security Services Limited",36.407079,43.1646556,,,,,,,
"موصل, يوسف طه",36.4070741,43.0978119,,,,,,,
"موصل, مدرسة قيد الانشاء",36.4070552,43.123596,,,,,,,
"موصل, سيد حسن عباس",36.4070239,43.0736281,,,,,,,
"موصل, حي النركيلع",36.4069888,43.0501852,,,,,,,
"موصل, مكتب وارد",36.4069807,43.1150404,,,,,,,
"موصل, حلاقة الباشا",36.4069307,43.1161396,,,,,,,
"موصل, اسواق خلدون",36.4068367,43.1542905,,,,,,,
"موصل, محل وليد عوني",36.406831,43.0926497,,,,,,,
"موصل, معرض امونة للاحذية",36.4068265,43.1609218,,,,,,,
"موصل, ماركت دي تو دي",36.4068205,43.1901395,,,,,,,
"موصل, اسواق تغلب",36.4068205,43.1901395,,,,,,,
"موصل, جامع المختار",36.4067913,43.1001852,,,,,,,
"موصل, مدرسة الارقم الاهلية المختلطة",36.4067871,43.1175297,,,,,,,
"موصل, ماركت الزهراء",36.4067452,43.0867706,,,,,,,
"موصل, مجموعة أفران الجزيرة",36.4067376,43.1169859,,,,,,,
"موصل, ريبازللتوصيل",36.406729,43.1170772,,,,,,,
"موصل, مديرية زراعة نينوى - الموقع البديل",36.4067153,43.1035041,,,,,,,
"موصل, مكتب الشيخ الملكي الهندسي",36.4066875,43.1475781,,,,,,,
"موصل, موصل الرشيديه شارع الروضه",36.4066704,43.0880225,,,,,,,
"موصل, محطة كهرباء بيسان الثانوية",36.4066635,43.099683, Lng: 43.12272189999999,,,,,,
"موصل, محطة توزيع كهرباء الرشيدية",36.4066563,43.0996628,,,,,,,
"موصل, مسجد",36.4066491,43.1985597,,,,,,,
"موصل, جامع محمود الغريب",36.4066462,43.0879866,,,,,,,
"موصل, Rashidiya clinic",36.4066253,43.0993558,,,,,,,
"موصل, جامع شهيدو",36.4066246,43.1235389,,,,,,,
"موصل, مكتب ابراهيم للموبيلات",36.4066246,43.0889892,,,,,,,
"موصل, مكتب ماهر للموبايلات",36.4066027,43.0889844,,,,,,,
"موصل, مكتب الاستثمار للعقار",36.4065927,43.1907708,,,,,,,
"موصل, كوافير الامبراطور للرجل",36.4065849,43.1134628,,,,,,,
"موصل, جامع الليلة",36.4065771,43.2022715,,,,,,,
"موصل, مكتب المدائن للموبايلات",36.4065749,43.0889465,,,,,,,
"موصل, تجهيزات شباب سبورت",36.4065736,43.0886515,,,,,,,
"موصل, جمعية الماء",36.4065471,43.1751226,,,,,,,
"موصل, مركز نُون للبحوث والدراسات المتخصصة",36.4065431,43.1175439,,,,,,,
"موصل, Al-Bayati markets",36.4065082,43.0873498,,,,,,,
"موصل, مياه سدن",36.4065029,43.1025651,,,,,,,
"موصل, ليث ابو ابنيان الشمري",36.4065015,43.175077,,,,,,,
"موصل, Mosul directorate of agriculture",36.4064959,43.1028551,,,,,,,
"موصل, علي حيتا",36.4064918,43.08848,,,,,,,
"موصل, معرض الذهب الاسود لانواع الزيوت العالميه الفرع الثاني",36.4064767,43.1218872,,,,,,,
"موصل, المستشفى البيطري/نينوى veterinary hospital of Ninevah",36.406457,43.1024216,,,,,,,
"موصل, احمد",36.4064483,43.1927346,,,,,,,
"موصل, مكتب الدكتور أحمد سالم الأحمد الجحيشي",36.4064208,43.0942707,,,,,,,
"موصل, دكتور علي",36.4064165,43.1012467,,,,,,,
"موصل, معهد أركون التعليمي",36.4063956,43.0872316,,,,,,,
"موصل, معمل اللصاقات",36.4063953,43.1116489,,,,,,,
"موصل, كوافير علاوي الاسمر",36.4063769,43.1135587,,,,,,,
"موصل, Alnasr Nunnery",36.4063762,43.1197349,,,,,,,
"موصل, دائرة الثروة الحيوانية قسم السيطرة النوعية على الأعلاف",36.4063656,43.10271,,,,,,,
"موصل, نجارة ديمة",36.4063623,43.1167875,,,,,,,
"موصل, اسواق ابو زيد",36.4063404,43.1170544,,,,,,,
"موصل, موقع جابر بن حيان",36.4063288,43.1238233,,,,,,,
"موصل, عيادة الدكتورة ثواب الخشاب",36.4063283,43.0887103,,,,,,,
"موصل, اسواق ابو نعيم",36.4063253,43.0943581,,,,,,,
"موصل, عيادة طب الاسنان الدكتورة ثواب بسام",36.4063127,43.0889784,,,,,,,
"موصل, دارك للالمنيوم",36.4063094,43.1908128,,,,,,,
"موصل, كافتريا داري ابو اياد",36.4063031,43.1170524,,,,,,,
"موصل, دار",36.406296,43.049369,,,,,,,
"موصل, ابو عماد",36.4062832,43.2765597,,,,,,,
"موصل, صيدلية ومجمع دليل الحياة الطبي",36.4062757,43.1795946,,,,,,,
"موصل, مكتب خير السند للعقارات",36.406256,43.1170812,,,,,,,
"موصل, مزارع الحدباء (الجنائن)",36.4062492,43.1595714,,,,,,,
"موصل, بيت سفيان",36.4062315,43.1745206,,,,,,,
"موصل, DARYL HERE",36.4062231,43.0735399,,,,,,,
"موصل, مولدة بيسان",36.4062128,43.1006194,,,,,,,
"موصل, حي نهضه",36.4061896,43.2133772,,,,,,,
"موصل, اراضي توزيع البلدية ج",36.4061875,43.1486947,,,,,,,
"موصل, الدائرة الإدارية والمالية قسم نينوى",36.4061801,43.0999496,,,,,,,
"موصل, بيت ابو رسول",36.4061592,43.0579318,,,,,,,
"موصل, بيت ابو سرود",36.4061517,43.0577128,,,,,,,
"موصل, كافي الاسطورة $",36.4061457,43.088368,,,,,,,
"موصل, كنيسة",36.4060939,43.1200331,,,,,,,
"موصل, جاسم ابو المولده مزارع الزيونه",36.4060924,43.2021163,,,,,,,
"موصل, سلطان كتلوني",36.4060887,43.286055,,,,,,,
"موصل, عيادة وايت دينت لطب الاسنان",36.4060854,43.0867572,,,,,,,
"موصل, ثانوية صلاح الدين الأيوبي الاسلامية للبنين / ثانوية نور الاسلام الاسلامية للبنات",36.4060719,43.0948591,,,,,,,
"موصل, مقبرة بيسان القديمة",36.4060717,43.0970015,,,,,,,
"موصل, ابو وسام للخياطة",36.4060717,43.0889143,,,,,,,
"موصل, Tree Pharmacy",36.4060176,43.0887995,,,,,,,
"موصل, مسبح الحدباء",36.4060123,43.1632463,,,,,,,
"موصل, طرشي الاصيل",36.4060101,43.1960555,,,,,,,
"موصل, بيت ابو بكر",36.4060076,43.1842154,,,,,,,
"موصل, سليم المولى ابو محمد",36.4059775,43.0893995,,,,,,,
"موصل, مني ماركة الحسيني",36.405973,43.195921,,,,,,,
"موصل, خلف كورش",36.4059686,43.0313333,,,,,,,
"موصل, علوة العراق",36.4059605,43.0305069,,,,,,,
"موصل, المهندس علي الحيالي",36.4059524,43.149941,,,,,,,
"موصل, حمودي",36.4059375,43.1841719,,,,,,,
"موصل, Waleed الفلاح",36.4059335,43.1841818,,,,,,,
"موصل, البيت الموصلي التجهيز المنزلي",36.4059307,43.1841751,,,,,,,
"موصل, Iraq -almusol",36.4059307,43.1841751,,,,,,,
"موصل, أحمد السيد خليل مشهداني",36.4059307,43.1841751,,,,,,,
"موصل, مكتب فوكس",36.4059195,43.1960394,,,,,,,
"موصل, كوافير العزاوي للحلاقه الرجاليه",36.4059189,43.1960719,,,,,,,
"موصل, محل قصي علو",36.4058922,43.0888369,,,,,,,
"موصل, دار",36.4058581,43.0337202,,,,,,,
"موصل, سعدالله كورش",36.4058548,43.0315401,,,,,,,
"موصل, ماركه ابو محمد",36.4058534,43.1968308,,,,,,,
"موصل, بيت زياد العزاوي",36.4058342,43.1998487,,,,,,,
"موصل, مكتب عزام الطائي",36.4058323,43.1939315,,,,,,,
"موصل, لحوم كرم",36.4058125,43.1960625,,,,,,,
"موصل, بلدية الرشيدية",36.4058088,43.0993398,,,,,,,
"موصل, معمل المسرة للالمنيوم والبلاستك",36.4058077,43.1968455,,,,,,,
"موصل, مخبز القاهرة",36.4058062,43.1967372,,,,,,,
"موصل, مطعم مندي اليمن",36.4058003,43.1139872,,,,,,,
"موصل, ابو علي",36.4057995,43.1708937,,,,,,,
"موصل, مسجد الحاج غانم يونس العبيدي",36.4057908,43.1966815,,,,,,,
"موصل, مكتب صرح العدالة للمحاماة",36.4057884,43.1966785,,,,,,,
"موصل, زيونه",36.4057869,43.1913234,,,,,,,
"موصل, بيت حجي أنيس",36.4057843,43.1717457,,,,,,,
"موصل, دوشمة الاخوين",36.405777,43.1000804,,,,,,,
"موصل, اسواق عبيده",36.4057652,43.1553004,,,,,,,
"موصل, دوشمة الرأفة",36.4057639,43.2000712,,,,,,,
"موصل, تجهيزات جنى",36.4057638,43.1704294,,,,,,,
"موصل, Mosul Dairy",36.4057584,43.11239,,,,,,,
"موصل, Tweist توست",36.4057579,43.1137816,,,,,,,
"موصل, محلات المشهداني للكهربائيات والعدد",36.4057492,43.1951208,,,,,,,
"موصل, مكتب النيل",36.405747,43.193278,,,,,,,
"موصل, كوفي ليالي زيونه",36.4057469,43.1950744,,,,,,,
"موصل, زيونه للتسوق العائلي",36.4057375,43.1974819,,,,,,,
"موصل, مكتب الهادي للعقارات",36.4057322,43.1936972,,,,,,,
"موصل, مأكولات عمو عمار",36.4057184,43.1974878,,,,,,,
"موصل, بيت يوسف",36.4057177,43.2058047,,,,,,,
"موصل, بيت ابو احمد",36.4057143,43.0593198,,,,,,,
"موصل, مكتب و قرطاسية المورد",36.4057017,43.088858,,,,,,,
"موصل, صيدلية علاء راكان عزيز",36.4056813,43.19323,,,,,,,
"موصل, ضمان كافيه",36.4056773,43.0887523,,,,,,,
"موصل, محطة تعبة غاز الرشيدية",36.4056637,43.094773,,,,,,,
"موصل, حلاقه يوسف",36.4056482,43.1002323,,,,,,,
"موصل, مكتب سيمو لخدمات الانترنيت",36.4056477,43.0584243,,,,,,,
"موصل, محلات اخوه",36.405643,43.0867618,,,,,,,
"موصل, الفلاح الثانية اسواق",36.4056403,43.1854137,,,,,,,
"موصل, مكتب Max للطباعة والاستنساخ",36.405621,43.1820963,,,,,,,
"موصل, مولدة البدالة",36.4056114,43.0947298,,,,,,,
"موصل, مزارع الزيونه جمعية ديوان المحافظة",36.40561,43.2015986,,,,,,,
"موصل, مكتب ركن المواسم للعقار",36.4056089,43.1820909,,,,,,,
"موصل, محل تصليح اطارات السيارات",36.4056046,43.0870727,,,,,,,
"موصل, معمل ابداع CNC",36.4056042,43.1001011,,,,,,,
"موصل, Mosque of the Most Merciful",36.4055767,43.1555459,,,,,,,
"موصل, مكتب ابو سبهان",36.4055684,43.191411,,,,,,,
"موصل, عطارية الاعتماد_شارع الروضة_الفرع الثاني",36.4055512,43.0884738,,,,,,,
"موصل, مكتب علي لخدمات الانترنيت (وكيل معتمد لشركة وطنا لخدمات الانترنيت)",36.4055431,43.144009,,,,,,,
"موصل, ابو كرم",36.4055366,43.2014987,,,,,,,
"موصل, مكتبة القلم",36.4055266,43.1980905,,,,,,,
"موصل, بيت فراس سعد",36.4055088,43.1442282,,,,,,,
"موصل, العباسيه",36.4055083,43.0921758,,,,,,,
"موصل, محمد قانوني",36.4055053,43.1980672,,,,,,,
"موصل, أفران زيونة",36.4054973,43.1901567,,,,,,,
"موصل, Baby Style Fashion",36.4054707,43.1174407,,,,,,,
"موصل, مولدة مزارع الحدباء",36.4054552,43.1556077,,,,,,,
"موصل, روضة وحضانة الكوثر الأهلية",36.405432,43.115895,,,,,,,
"موصل, مكتب دبي لخدمات الانترنت",36.4054316,43.1177186,,,,,,,
"موصل, مصور سما الفرع الثاني٠٧٧٠٢٨١٧٤٠٦",36.4054199,43.0886161,,,,,,,
"موصل, ازياء fofo",36.405419,43.1534275,,,,,,,
"موصل, كافتيريا دنيز",36.4054116,43.0884486,,,,,,,
"موصل, علي الصفار",36.4053899,43.0886155,,,,,,,
"موصل, كوفي لافا",36.4053898,43.0886155,,,,,,,
"موصل, مركز SRTلغسيل سيارات وتبديل كافه نواع زيوت عالمية موصل قرب زيونة",36.405384,43.190197,,,,,,,
"موصل, اسواق معتز",36.4053819,43.1139068,,,,,,,
"موصل, ساحة زيونه",36.4053754,43.1991882,,,,,,,
"موصل, القاضية",36.4053643,43.148853,,,,,,,
"موصل, فالكون للاعمال المساحية",36.4053562,43.0997893,,,,,,,
"موصل, شركة كيكا نت لخدمات الانترنت",36.4053452,43.1182152,,,,,,,
"موصل, بيت شلاوي",36.4053441,43.1690676,,,,,,,
"موصل, منظومة سيد عسكر",36.405343,43.0406553,,,,,,,
"موصل, ابو مازن",36.405339,43.1690598,,,,,,,
"موصل, محمد اسماعيل",36.4053275,43.0317727,,,,,,,
"موصل, محل شراء خردوات",36.405322,43.0870685,,,,,,,
"موصل, ورشة ابو محمد لتصليح الغسالات",36.4053201,43.0892543,,,,,,,
"موصل, مضيف الشيخ محمد الظاهر",36.4053167,43.0888667,,,,,,,
"موصل, احمد الملكي",36.4052668,43.1436533,,,,,,,
"موصل, الكوبكلية (الرياضيين)",36.4052638,43.1718687,,,,,,,
"موصل, علي ازهر",36.4052548,43.1436042,,,,,,,
"موصل, Net Rachidia",36.405241,43.0882704,,,,,,,
"موصل, هاني لبرمجة و فحص السيارات",36.4052228,43.0989274,,,,,,,
"موصل, اسواق جاسم",36.4052084,43.1701791,,,,,,,
"موصل, محمد",36.4051875,43.1858125,,,,,,,
"موصل, مدرسة الابتهاج للبنين",36.4051875,43.0893125,,,,,,,
"موصل, جامع نداء الاسلام",36.4051714,43.2059222,,,,,,,
"موصل, معرض ابو نزار عالم اطفال",36.4051645,43.0883718,,,,,,,
"موصل, مقبرة السادة آل غريب الهاشمي",36.4051553,43.0857711,,,,,,,
"موصل, صيدلية الرشيدية المركزية",36.4051351,43.0886121,,,,,,,
"موصل, اسواق الحاج ذنون",36.405132,43.170157,,,,,,,
"موصل, اسواق ابو يوسف",36.4051299,43.040939,,,,,,,
"موصل, جامع السعيد",36.405129,43.0996323,,,,,,,
"موصل, تصليح البلازمات التلفزيونات ابو احمد",36.4051226,43.0415509,,,,,,,
"موصل, مكتب اينور للتصوير",36.4051196,43.0877888,,,,,,,
"موصل, دلير خسرو سمايل",36.4051141,43.1140728,,,,,,,
"موصل, السيد علي عبدالمطلب",36.405087,43.0906256,,,,,,,
"موصل, مكتب برالسلامة للعقار والبناء الهندسي",36.4050724,43.1488662,,,,,,,
"موصل, خدمات احمد هاني لديزل",36.4050562,43.0985974,,,,,,,
"موصل, محلات العباسي الرشيدية بادراة ابو دعاء",36.4050492,43.0891396,,,,,,,
"موصل, Mutawakkil Market Family Shopping",36.4050287,43.1176881,,,,,,,
"موصل, اسماك شجاع",36.4050241,43.1167362,,,,,,,
"موصل, مقبرة السدة",36.4050147,43.0862901,,,,,,,
"موصل, ثانوية الشهيد اسماعيل طالب للبنين",36.4050123,43.0893794,,,,,,,
"موصل, مدرسة الشهيد خالد",36.4050123,43.0893794,,,,,,,
"موصل, اسواق ابو علي",36.4050039,43.0412951,,,,,,,
"موصل, مكتب الريادة الهندسية",36.4049951,43.1144725,,,,,,,
"موصل, Haji Karim Mosque",36.404994,43.094074,,,,,,,
"موصل, مصلح طباخات",36.4049869,43.0943539,,,,,,,
"موصل, مسجد الإمام الحسين ع",36.4049818,43.2841584,,,,,,,
"موصل, ابوبكرالسراج",36.4049761,43.1526057,,,,,,,
"موصل, Àziz87",36.4049675,43.0888912,,,,,,,
"موصل, معهد سيد نقي لدورات الخصوصية",36.4049639,43.0410426,,,,,,,
"موصل, Qara Tapa - Shabak",36.4049571,43.282287,,,,,,,
"موصل, مصطفى الكاتب",36.4049544,43.0399587,,,,,,,
"موصل, تجهيزات ماشاء الله للتسوق المنزلي",36.4049428,43.0885224,,,,,,,
"موصل, مقبرة الرشيدية",36.404927,43.0864447,,,,,,,
"موصل, MAX WELL",36.4048981,43.088968,,,,,,,
"موصل, مجمع الشارقة",36.4048705,43.1072994,,,,,,,
"موصل, مكتب رائد القطان",36.4048653,43.1180366,,,,,,,
"موصل, مدرسة قره تبة الشبك",36.4048651,43.284294,,,,,,,
"موصل, كوافير احسان",36.4048199,43.1497111,,,,,,,
"موصل, بيت دله مريم",36.4048125,43.0890156,,,,,,,
"موصل, كوزمتك اماني",36.40481,43.0890193,,,,,,,
"موصل, مدرسة الدار البيضاء",36.4048058,43.1815106,,,,,,,
"موصل, بيت عبيدة عثمان",36.4047923,43.1829627,,,,,,,
"موصل, جامع المصطفى صلى الله عليه و سلم",36.4047813,43.1517646,,,,,,,
"موصل, الشيخ حمد أبو رائد",36.4047804,43.1959641,,,,,,,
"موصل, فواكه وخضروات الفرات",36.4047783,43.1143139,,,,,,,
"موصل, حلاقة رياض مطر للرجال",36.4047781,43.0906052,,,,,,,
"موصل, مكتب هدوشة",36.4047649,43.1179742,,,,,,,
"موصل, مكتب الهدى للحاسبات والانترنت",36.4047644,43.1179748,,,,,,,
"موصل, الماس لغسل السجاد",36.4047629,43.0992911,,,,,,,
"موصل, محمود الحافظ",36.4047556,43.1526872,,,,,,,
"موصل, معهد المنار الأهلي",36.4047454,43.0936881,,,,,,,
"موصل, مدرس الاحياء",36.4047214,43.1860228,,,,,,,
"موصل, اياد رمضان",36.4047189,43.0350241,,,,,,,
"موصل, قره قوين",36.4047119,43.0427126,,,,,,,
"موصل, ابو صفية",36.4047082,43.2088762,,,,,,,
"موصل, مكتب العزاوي للمقاولات والاليات",36.4047029,43.1495213,,,,,,,
"موصل, اسواق الاخوين عمر و مضر",36.4046924,43.1522316,,,,,,,
"موصل, مزرعة الحاج عامر العبيدي",36.4046863,43.1540138,,,,,,,
"موصل, Rashidiya Police Station",36.4046663,43.0957976,,,,,,,
"موصل, ياسر الجبوري",36.4046487,43.18231,,,,,,,
"موصل, أسواق جاجان",36.4046302,43.1983273,,,,,,,
"موصل, مكتب علوش",36.4046294,43.1997084,,,,,,,
"موصل, أسواق أبو علا الحسني",36.4046245,43.0893105,,,,,,,
"موصل, افران سعد المولى للحويات",36.4046229,43.0948259,,,,,,,
"موصل, مسجد تبوك",36.4046049,43.2066562,,,,,,,
"موصل, بكر دحام",36.4046021,43.0975192,,,,,,,
"موصل, مكتب الحسني للقرطاسية والاستنساخ",36.4045948,43.0893507,,,,,,,
"موصل, مجيد ابو الدهن",36.404573,43.0971108,,,,,,,
"موصل, ابو جاجان",36.4045621,43.1986553,,,,,,,
"موصل, جامع لا إله إلا الله",36.4045484,43.20686,,,,,,,
"موصل, ملعب الترابي",36.4045344,43.0328055,,,,,,,
"موصل, معمل الامل لعمل البلاستك",36.4045265,43.0894199,,,,,,,
"موصل, جابرابن حيان",36.4045226,43.1266712,,,,,,,
"موصل, فرن البسمل لايعمل",36.4045074,43.1241848,,,,,,,
"موصل, جامع الشيخ علي عزالدين",36.404506,43.0878012,,,,,,,
"موصل, جامع الشيخ احمد الرشيدي",36.4044955,43.0877694,,,,,,,
"موصل, مرطبات 2.10",36.4044875,43.1150469,,,,,,,
"موصل, حازم الطائي",36.4044741,43.0312681,,,,,,,
"موصل, مكتب بيادر الخير",36.4044733,43.2007226,,,,,,,
"موصل, وكيل شركة WiFi-Net-ISP",36.4044704,43.0929135,,,,,,,
"موصل, Omar markets",36.4044682,43.1241946,,,,,,,
"موصل, بيت السيد حكيم",36.4044645,43.0879823,,,,,,,
"موصل, علي ال موسوي",36.4044613,43.0423263,,,,,,,
"موصل, حسن ابو الدهن",36.4044592,43.0970891,,,,,,,
"موصل, خليل الفيتر",36.4044433,43.0970732,,,,,,,
"موصل, معهد شريخان سفلى لدروس التقوية",36.4044296,43.0730879,,,,,,,
"موصل, ماركت المجمع التركي",36.4044291,43.1242581,,,,,,,
"موصل, مزرعة الحاج حسين صابر درزي البياتي",36.4044205,43.1617846,,,,,,,
"موصل, مكتب الفحام لتأجير الخيم والكراسي",36.4044171,43.1144414,,,,,,,
"موصل, ستوديو سما للتصوير",36.4043978,43.0961228,,,,,,,
"موصل, زيونة لخدمات الأنترنت",36.4043924,43.2031372,,,,,,,
"موصل, قرطاسية الكوثر",36.4043884,43.184237,,,,,,,
"موصل, مختار مزارع الحدباء",36.4043806,43.1488843,,,,,,,
"موصل, دار يونس",36.4043573,43.0563195,,,,,,,
"موصل, بـيـت شـيـخ غـانـم ايديـن",36.4043499,43.0422998,,,,,,,
"موصل, كوفي الأمير",36.4043499,43.0422998,,,,,,,
"موصل, الطائي",36.4043499,43.0422998,,,,,,,
"موصل, اسواق سعد السلطان",36.4043499,43.0422998,,,,,,,
"موصل, ثانوية قرة قوينلي",36.4043499,43.0422998,,,,,,,
"موصل, يوسج 56",36.4043436,43.1840374,,,,,,,
"موصل, مسجد نمرة",36.4043349,43.1748299,,,,,,,
"موصل, الريس عبودي",36.4043328,43.1654808,,,,,,,
"موصل, يوسف",36.4043328,43.1229308,,,,,,,
"موصل, محمد سليمان",36.404307,43.1437493,,,,,,,
"موصل, قرة قوين",36.404299,43.0423501,,,,,,,
"موصل, برج ايرثلنك جديد",36.4042927,43.0424289,,,,,,,
"موصل, بيت سيد زكي",36.4042927,43.0424289,,,,,,,
"موصل, حي النركيله",36.4042927,43.0424289,,,,,,,
"موصل, ابو محمد",36.4042745,43.0403,,,,,,,
"موصل, كريم علاء",36.404271,43.0708034,,,,,,,
"موصل, مخزن المصطفى للتبريد",36.4042696,43.0710167,,,,,,,
"موصل, مكتبة القلم",36.4042683,43.0942798,,,,,,,
"موصل, اسواق ابوسجاد",36.4042615,43.0423457,,,,,,,
"موصل, بيت فلاح خضر حسين المحترم",36.4042615,43.0423457,,,,,,,
"موصل, عباس الاعرجي",36.4042615,43.0423457,,,,,,,
"موصل, مزرعة الحاج علي حسين",36.4042615,43.0423457,,,,,,,
"موصل, ابو علوش",36.4042615,43.0423457,,,,,,,
"موصل, المواليده",36.4042615,43.0423457,,,,,,,
"موصل, بيت سجاد الريس",36.4042615,43.0423457,,,,,,,
"موصل, ابو سلام",36.4042615,43.0423457,,,,,,,
"موصل, دار عبد الرحمن محمد سالم",36.4042615,43.0423457,,,,,,,
"موصل, ابن الخدوش",36.4042615,43.0423457,,,,,,,
"موصل, ميزانية وبلنص الاخوين",36.4042596,43.0970442,,,,,,,
"موصل, محل دحام الفيتر",36.4042557,43.0970592,,,,,,,
"موصل, اسواق ابو عادل",36.4042431,43.0949037,,,,,,,
"موصل, شقة ابو وسام العباسي",36.4042421,43.1132003,,,,,,,
"موصل, محمد البدراني لتبريد السيارات",36.4042276,43.0973895,,,,,,,
"موصل, صيدلية الائتمان",36.4042222,43.096225,,,,,,,
"موصل, اصباغ العبيدي",36.4041875,43.0960625,,,,,,,
"موصل, صالون راما كوين",36.4041871,43.0961208,,,,,,,
"موصل, د",36.4041849,43.0642484,,,,,,,
"موصل, اسواق ركن الخيرات",36.4041798,43.2030422,,,,,,,
"موصل, معهد النجاح للتدريس الخصوصي",36.4041728,43.067779,,,,,,,
"موصل, الحمدانية",36.4041567,43.0966351,,,,,,,
"موصل, اسواق حي العسكري",36.4041567,43.0966351,,,,,,,
"موصل, أراضي قزةفخرة",36.4041567,43.0966351,,,,,,,
"موصل, جامع الكوثر",36.4041428,43.1842236,,,,,,,
"موصل, عرب السلمان آل بو ريشه",36.4041191,43.0935868,,,,,,,
"موصل, اسواق احمد",36.4041177,43.0919377,,,,,,,
"موصل, حمودي التركماني للفرفوري",36.4041163,43.0918746,,,,,,,
"موصل, كراج دانية ماركت",36.4041125,43.1254531,,,,,,,
"موصل, مركز لحوم ارض السعدون 2",36.4041111,43.1145909,,,,,,,
"موصل, حلويات الركن الدمشقي",36.4041,43.1145979,,,,,,,
"موصل, Tokyo game center",36.404063,43.114563,,,,,,,
"موصل, مولدة من الله التوفيق",36.4040589,43.1209788,,,,,,,
"موصل, بيتنا في الكندي",36.4040295,43.1429848,,,,,,,
"موصل, محلات بشير الاسعد",36.4040195,43.0945876,,,,,,,
"موصل, حسين سعيد العبيدي",36.4040194,43.0945879,,,,,,,
"موصل, مركز تعليم التركماني فرع الموصل",36.4040194,43.0945879,,,,,,,
"موصل, Aşakı Şirhan ilk okulu",36.4040182,43.0728446,,,,,,,
"موصل, مكتب الطالب",36.4040106,43.2027188,,,,,,,
"موصل, بيت النوتيلا",36.4039704,43.1148419,,,,,,,
"موصل, بيت المهندس لميس التك",36.4039515,43.144362,,,,,,,
"موصل, ابو مثنى العلم",36.4039483,43.1748124,,,,,,,
"موصل, 2:10 mall",36.4039375,43.1149375,,,,,,,
"موصل, صيدلية الطاحونة",36.4039291,43.0942312,,,,,,,
"موصل, جامع فاطمة الزهراء",36.4039021,43.0587308,,,,,,,
"موصل, بيت علب حلمي",36.4038761,43.0705511,,,,,,,
"موصل, مزرعه حجي صالح",36.4038749,43.0418801,,,,,,,
"موصل, كنتاكي بوكس - مول 2:10",36.4038592,43.1148751,,,,,,,
"موصل, مدرسة القبة للبنين",36.4038586,43.038481,,,,,,,
"موصل, نزار العبو",36.403843,43.1959955,,,,,,,
"موصل, بيت السيد الحاج عبد القهار الهاشمي",36.4038374,43.0915516,,,,,,,
"موصل, مكتب الخير للاراگيل (أراگيل ألسيد)",36.4038228,43.0950298,,,,,,,
"موصل, حلاقة احمد",36.4038206,43.1846825, Lng: 43.0743021,,,,,,
"موصل, برج مهند البياتي إنترنت",36.4038125,43.0468125,,,,,,,
"موصل, بيت عسكر",36.4037988,43.0705449,,,,,,,
"موصل, مكتب الأخوين للموبايلات",36.4037945,43.0938486,,,,,,,
"موصل, هوبي ماركت",36.4037756,43.1515805,,,,,,,
"موصل, مرطبات 210",36.4037691,43.1147679,,,,,,,
"موصل, محلات علي ذنون للمواد الغذائية",36.4037688,43.0949882,,,,,,,
"موصل, منطقة الشيخكية",36.4037669,43.2293142,,,,,,,
"موصل, محلات البركة",36.4037545,43.0936991,,,,,,,
"موصل, معمل مودرن لاعمال المنيوم والبلاستك والمحجلات",36.4037404,43.1488105,,,,,,,
"موصل, بيت علي حلمي",36.4037291,43.0704638,,,,,,,
"موصل, معرض زكريا العريبي",36.403723,43.1149933,,,,,,,
"موصل, متوسطة شريخان للبنين والبنات.‌",36.403706,43.0728561,,,,,,,
"موصل, جامع خليل الرحمن",36.4036998,43.1975789,,,,,,,
"موصل, منفذ الرشيدي",36.4036947,43.094813,,,,,,,
"موصل, عبود الخدوش",36.4036875,43.0466875,,,,,,,
"موصل, محمد ابو مللك",36.403639,43.1818951,,,,,,,
"موصل, جمعية حمورابي",36.4036348,43.1092207,,,,,,,
"موصل, صيدلية السارية",36.4036192,43.0947027,,,,,,,
"موصل, بكر لخدمات الانترنت",36.4036112,43.2033223,,,,,,,
"موصل, كوفي المزاج",36.4036003,43.0944503,,,,,,,
"موصل, صيدلية النعمه",36.4035798,43.0933951,,,,,,,
"موصل, مدرسة القبة الثانية المختلطة",36.4035723,43.0381109,,,,,,,
"موصل, خضروات و فواكه مروان ابو نسرين",36.403554,43.0943146,,,,,,,
"موصل, عيادات بيسان لطب الاسنان",36.4035513,43.094544,,,,,,,
"موصل, خضر وعمر النائب",36.4035505,43.0542304,,,,,,,
"موصل, الاصدقاء للاصباغ",36.4035437,43.0930442,,,,,,,
"موصل, المثنى للانشائيات وعدد البناء",36.4035294,43.0930182,,,,,,,
"موصل, الموصل مزارع زيونة جمعية ام الربيعين",36.4035289,43.1987566,,,,,,,
"موصل, مربع الخمسينات",36.4035227,43.1607771,,,,,,,
"موصل, مأكولات إيلان",36.4035168,43.0942546,,,,,,,
"موصل, صيدلية دمشق",36.4034971,43.0941797,,,,,,,
"موصل, السراج للأيجارات",36.4034741,43.0931596,,,,,,,
"موصل, SPOSA",36.4034658,43.118356,,,,,,,
"موصل, مكتب الذاكرين",36.4034658,43.118356,,,,,,,
"موصل, El Arabi Center",36.4034658,43.118356,,,,,,,
"موصل, مطعم المائدة 2",36.4034609,43.114957,,,,,,,
"موصل, مجمع الرشيدية الطبي",36.4034586,43.0942087,,,,,,,
"موصل, محل الزهرة",36.4034219,43.0379835,,,,,,,
"موصل, معرض ابو احمد الكهربائي",36.4034049,43.0938547,,,,,,,
"موصل, مدرسة الهدى",36.403404,43.1172764,,,,,,,
"موصل, ملعب",36.4033989,43.1870517,,,,,,,
"موصل, معرض جاسم عزو",36.4033973,43.0938336,,,,,,,
"موصل, صيدلية سما الكندي",36.4033905,43.1483892,,,,,,,
"موصل, البان الرشيدية",36.4033794,43.0940673,,,,,,,
"موصل, محطة تعبئة المنهل",36.4033763,43.188653,,,,,,,
"موصل, محل مثنى",36.4033746,43.092786,,,,,,,
"موصل, احمد الحداد",36.4033674,43.0872735,,,,,,,
"موصل, مركز الرشيدية /2",36.4033637,43.0384623,,,,,,,
"موصل, بقالة سعيد للخضروات والفواكه",36.4033587,43.0938592,,,,,,,
"موصل, حي ال كلود",36.4033562,43.0622792,,,,,,,
"موصل, جامع سلطان هاشم",36.4033527,43.1230716,,,,,,,
"موصل, برج مكتب الحبيب لخدمات الانترنت",36.4033505,43.052611,,,,,,,
"موصل, اسواق ابو رائد",36.40335,43.192885,,,,,,,
"موصل, قاعة مناسبات جامع سلطان هاشم",36.4033495,43.1226388,,,,,,,
"موصل, علي خليل",36.403348,43.041481,,,,,,,
"موصل, اسواق الخضراء",36.4033236,43.0926916,,,,,,,
"موصل, حلاقة الاجراس للرجال",36.4033125,43.0938125,,,,,,,
"موصل, طرشي الموصلي",36.403296,43.0933239,,,,,,,
"موصل, زيد الحيالي",36.4032876,43.1848481,,,,,,,
"موصل, كوفي جاسم",36.4032809,43.0937668,,,,,,,
"موصل, مكتبة المؤمن فون",36.4032742,43.1149566,,,,,,,
"موصل, بيت الشيخ احمد السبعاوي",36.403272,43.194176,,,,,,,
"موصل, جامع هدي المصطفى",36.4032527,43.1844539,,,,,,,
"موصل, الفلاح الثانية",36.4032527,43.1844539,,,,,,,
"موصل, ورشة العبيدي لتصليح الطباخات",36.4032523,43.0940635,,,,,,,
"موصل, مكتب الكمال لبيع السمنت",36.4032477,43.0921102,,,,,,,
"موصل, اسواق الهلال",36.4032458,43.0924186,,,,,,,
"موصل, محل عطالله للكهربائيات",36.4032455,43.0940068,,,,,,,
"موصل, معمل بيبسي",36.4032407,43.0996747,,,,,,,
"موصل, Tiba juice",36.4032342,43.0934488,,,,,,,
"موصل, بارق",36.4032187,43.14918,,,,,,,
"موصل, مكتب الحادِقة لكاميرات المراقبة",36.4031975,43.09237,,,,,,,
"موصل, مخزن الزيتون",36.4031858,43.0676764,,,,,,,
"موصل, Markt Mohammed Al-Ashw",36.4031759,43.1189596,,,,,,,
"موصل, كماليات يحيى العباسي",36.4031738,43.0922302,,,,,,,
"موصل, مكتب العربي",36.4031652,43.1188217,,,,,,,
"موصل, Rashidiya Grand Mosque",36.4031633,43.0872269,,,,,,,
"موصل, türk konsolosluğu القنصلية التركية",36.4031632,43.1602393,,,,,,,
"موصل, كماليات الأصدقاء للسيارات",36.4031433,43.0921863,,,,,,,
"موصل, مولدة محمد عمار محمد يونس",36.4031271,43.1642894,,,,,,,
"موصل, مسجد الحمدلله",36.4031262,43.1577412,,,,,,,
"موصل, ملعب الفهد",36.403116,43.1236553,,,,,,,
"موصل, مجمع كلشي وكلاشي",36.4031146,43.1150333,,,,,,,
"موصل, مجمع زيونه",36.4030642,43.2047499,,,,,,,
"موصل, معمل التاج الذهبي الابواب والشبابيك pvc",36.4030509,43.1466994,,,,,,,
"موصل, سينتر دانيال",36.4030057,43.1151021,,,,,,,
"موصل, كوفيه وسام",36.4030047,43.0928475,,,,,,,
"موصل, Ph Hamza",36.4029934,43.1190982,,,,,,,
"موصل, مكتب الحبيب لخدامات الانترنت",36.4029887,43.0574354,,,,,,,
"موصل, سيد احمد للدجاج الحي",36.4029653,43.040792,,,,,,,
"موصل, دانيال فون",36.4029459,43.1151299,,,,,,,
"موصل, جسر الفلاح",36.4029455,43.1768408,,,,,,,
"موصل, صالة c4 الرياضية",36.4029283,43.1888433,,,,,,,
"موصل, سلسلة ماركتات كاكنج للتسوق",36.4029229,43.1887869,,,,,,,
"موصل, حلويات الامير",36.4028999,43.0745576,,,,,,,
"موصل, مخزن حازم خليل",36.4028985,43.0676682,,,,,,,
"موصل, حي العجاج",36.4028985,43.0676682,,,,,,,
"موصل, علوة شجرة الشريخان",36.4028932,43.0705724,,,,,,,
"موصل, نراكيل الهيبه",36.4028902,43.1152469,,,,,,,
"موصل, بيت عمو توفيق",36.4028728,43.1545656,,,,,,,
"موصل, The modern market complex",36.4028328,43.1185448,,,,,,,
"موصل, مثنى عمر العبيدي",36.4028283,43.1832984,,,,,,,
"موصل, عيادة الزمرد لطب الاسنان والتجميل اللاجراحي",36.4028262,43.1216209,,,,,,,
"موصل, مخزن تجميد بطاطه",36.4028103,43.0509158,,,,,,,
"موصل, Zaid Pharmacy",36.4028018,43.1216439,,,,,,,
"موصل, مسجد",36.4028017,43.0587526,,,,,,,
"موصل, خالد الراشدي أبو صلاح",36.4027968,43.1941294,,,,,,,
"موصل, شركة الإمام للكونكريت",36.4027851,43.1002815,,,,,,,
"موصل, حلاقة ابو ارشد",36.4027849,43.0399933,,,,,,,
"موصل, صالون حلاقة عمار",36.4027806,43.1185729,,,,,,,
"موصل, ابو الهيل",36.4027583,43.1124308,,,,,,,
"موصل, بقالة كاظم جواد",36.4027577,43.0400254,,,,,,,
"موصل, حيدر بنچرچي",36.4027326,43.0628482,,,,,,,
"موصل, ال ابراهيم احمد",36.4027326,43.0628482,,,,,,,
"موصل, مكتب ابو عمار الزهيري الموبايلات للبيع الأقساط",36.4027322,43.0402362,,,,,,,
"موصل, اسواق حسن كلود",36.4027294,43.074594,,,,,,,
"موصل, علي حسين للدراجات الهوائية",36.4027274,43.0401504,,,,,,,
"موصل, Car Parking",36.4027253,43.1220219,,,,,,,
"موصل, مضيف الشيخ عباس خليل",36.402718,43.0679216,,,,,,,
"موصل, i store mosul",36.4026913,43.1888367,,,,,,,
"موصل, اسواق الشمس",36.4026807,43.0748568,,,,,,,
"موصل, برج محمد رستم للانترنت",36.4026408,43.0500005,,,,,,,
"موصل, جامع المتقين",36.4026214,43.2558805,,,,,,,
"موصل, مكتب محمد حسين للموبايل",36.4026186,43.0403486,,,,,,,
"موصل, محلات ياسر محسن رشيديه",36.4026141,43.0868256,,,,,,,
"موصل, بيت الشيخ عامر شيخلار",36.4026063,43.1599208,,,,,,,
"موصل, مكتب منزل الامراء",36.4025952,43.1476701,,,,,,,
"موصل, حسوني الامير",36.4025898,43.0519468,,,,,,,
"موصل, كوفي السيد",36.4025704,43.0866169,,,,,,,
"موصل, القبس للعقار",36.4025495,43.1472907,,,,,,,
"موصل, مزرعه الربيع",36.4025297,43.256197,,,,,,,
"موصل, قرقوين",36.4024989,43.0449606,,,,,,,
"موصل, ملعب عشاق الرياضة",36.4024009,43.1886138,,,,,,,
"موصل, سمير شريف",36.4023748,43.1835806,,,,,,,
"موصل, عمر فيصل الياس",36.4015765,43.1772893,,,,,,,
"موصل, ماكولات حمودي قدم",36.4015723,43.0459471,,,,,,,
"موصل, محل الفرات",36.4015565,43.0454565,,,,,,,
"موصل, كافي ايبو",36.4015549,43.0455541,,,,,,,
"موصل, مول قره قوين بإدارة حربي الملي",36.4015517,43.0454313,,,,,,,
"موصل, مزرعة الحاج مصطفى",36.4015002,43.1704542,,,,,,,
"موصل, الوكيلة ناهدة ابراهيم حسن",36.401442,43.0938752,,,,,,,
"موصل, دار الشيخ محمد خليف السناني",36.4014394,43.117272,,,,,,,
"موصل, جامع الفائزين",36.4014241,43.184177,,,,,,,
"موصل, مكتب الزخرف الموصلي للاستشارات الهندسية",36.4013979,43.1475632,,,,,,,
"موصل, الورشة الفنية لتصليح اجهزة التبريد والتكييف",36.4013779,43.0437064,,,,,,,
"موصل, محلات ابو ابراهيم",36.401365,43.0462092,,,,,,,
"موصل, مجلس اعيان قرة قوين",36.4013606,43.0439515,,,,,,,
"موصل, حلاقة النصر",36.4013584,43.0453922,,,,,,,
"موصل, مكتب جود بادارة يوسف الموسوي",36.4013577,43.0453042,,,,,,,
"موصل, محلات ابو واثق",36.4013542,43.0457616,,,,,,,
"موصل, محل الطوبجي",36.4013399,43.0438854,,,,,,,
"موصل, وكالة غذائية سيد محسن عباس",36.4013397,43.0439051,,,,,,,
"موصل, منفذ جوهرة المصطفى",36.4013358,43.0437436,,,,,,,
"موصل, محل أكرم ايدن للسكائر والحلويات",36.4013272,43.0450391,,,,,,,
"موصل, روضة ينكي دنيا التركمانية",36.4013123,43.0868309,,,,,,,
"موصل, اسواق الحيالي",36.401294,43.1844959,,,,,,,
"موصل, محلات السلطان",36.401284,43.0445361,,,,,,,
"موصل, صالون تاج العروس",36.4012744,43.0496116,,,,,,,
"موصل, افران زينب2",36.4012712,43.163891,,,,,,,
"موصل, كماليات السيارات زيدون",36.4012672,43.1638281,,,,,,,
"موصل, Sarmed Home",36.401245,43.1522529,,,,,,,
"موصل, مدرسة القبة الابتدائية للبنات",36.4012425,43.0442826,,,,,,,
"موصل, مخضر الدباغ",36.4012302,43.1178769,,,,,,,
"موصل, بنوك",36.4012006,43.1938048,,,,,,,
"موصل, مولدة السلام",36.4011305,43.1246685,,,,,,,
"موصل, صيدلية دريد",36.4011259,43.1635888,,,,,,,
"موصل, الملكي",36.4011259,43.1460858,,,,,,,
"موصل, ورشة تصليح الفلاتر المياه Ismaeel Aljbory",36.4011139,43.0437405,,,,,,,
"موصل, مخبز البدراني",36.4011064,43.1190345,,,,,,,
"موصل, جامع الإمام حسن العسكري",36.4010967,43.0468707,,,,,,,
"موصل, الأوس للألمنيوم والبلاستك",36.4010913,43.1242907,,,,,,,
"موصل, فواكه دجله",36.4010913,43.1242907,,,,,,,
"موصل, مهند",36.4010913,43.1242907,,,,,,,
"موصل, جامع صبيحة",36.4010863,43.0467959,,,,,,,
"موصل, تجهيزات زمزم",36.4010648,43.1458965,,,,,,,
"موصل, بيت يحيى نزار ابراهيم السيد",36.401042,43.1788562,,,,,,,
"موصل, عيادة نبض التمريضية التخصصية",36.401033,43.1469949,,,,,,,
"موصل, البان بركت الرحمان",36.4010276,43.1423262,,,,,,,
"موصل, البان شلاوي",36.4010253,43.1188496,,,,,,,
"موصل, لحم بعجين وكاهي ابو العز",36.4010133,43.1188058,,,,,,,
"موصل, البلدة",36.4010007,43.1476585,,,,,,,
"موصل, متنزه العربي ٢",36.4009945,43.1209047,,,,,,,
"موصل, جمعية الديار للاسكان",36.4009934,43.1635361,,,,,,,
"موصل, HRC 3",36.4009842,43.1592774,,,,,,,
"موصل, مكتب ومصور ايكون",36.4009777,43.1458472,,,,,,,
"موصل, تطريزات انور العراقي",36.4009767,43.0918842,,,,,,,
"موصل, مجمع أتصالات العربي",36.4009647,43.1242751,,,,,,,
"موصل, جامع الناجي",36.4009478,43.1052617,,,,,,,
"موصل, ابو كرم لخدمات الانترنت",36.4009432,43.0459175,,,,,,,
"موصل, Habaybna Cafe",36.4009426,43.1180887,,,,,,,
"موصل, كهربائيات الصديق",36.4009375,43.1634375,,,,,,,
"موصل, شارع مدين العبادي",36.4009294,43.1419688,,,,,,,
"موصل, Omar agha Earthlink",36.400917,43.1299478,,,,,,,
"موصل, أحمد سبهان",36.4009125,43.0917969,,,,,,,
"موصل, قصر النيل للمنيوم والبلاستك",36.4009112,43.1886858,,,,,,,
"موصل, دار ابو فهد آل خلف",36.4009041,43.0918086,,,,,,,
"موصل, برج شركة عصر التكنولوجيا للانترنيت رشيديه قطاع الاول",36.4009041,43.0918086,,,,,,,
"موصل, جامع الغني الحميد",36.4008943,43.1697139,,,,,,,
"موصل, بيت مهند فخري الحرامي",36.4008922,43.1248841,,,,,,,
"موصل, غسل حيدر",36.4008784,43.1293403,,,,,,,
"موصل, ساحة السرحان",36.4008752,43.1422264,,,,,,,
"موصل, بشار الصباغ",36.4008752,43.1422264,,,,,,,
"موصل, الحدباء",36.4008752,43.1422264,,,,,,,
"موصل, دلو الكوردي",36.4008752,43.1422264,,,,,,,
"موصل, ارضي",36.4008752,43.1422264,,,,,,,
"موصل, المنزل كندي",36.4008588,43.1422424,,,,,,,
"موصل, مختار الكندي (نشوان نزار العبيدي)",36.4008588,43.1422423,,,,,,,
"موصل, محمد ابو ايلين",36.4008588,43.1422423,,,,,,,
"موصل, اسواق يونس الطائي",36.4008588,43.1422423,,,,,,,
"موصل, Nastya Technologis",36.4008588,43.1422423,,,,,,,
"موصل, الكندي",36.4008588,43.1422423,,,,,,,
"موصل, احمد الش",36.4008572,43.1422429,,,,,,,
"موصل, ابو ايهم الحياني",36.4008572,43.1422429,,,,,,,
"موصل, احمد ابو يمان",36.4008572,43.1422429,,,,,,,
"موصل, بورصة الخيرات",36.4008536,43.1633138,,,,,,,
"موصل, HRC 2",36.4008522,43.159324,,,,,,,
"موصل, قاعة الكناري",36.4008447,43.0290598,,,,,,,
"موصل, المملكة الخضراء",36.4008439,43.1209221,,,,,,,
"موصل, مرطبات حسوني",36.4008407,43.1456571,,,,,,,
"موصل, احمد الشعار",36.400838,43.1541547,,,,,,,
"موصل, مجموعة الريان للابواب",36.4008368,43.1881683,,,,,,,
"موصل, مرطبات المهند",36.4008076,43.1631556,,,,,,,
"موصل, كافيه ريحانة",36.4008064,43.1185068,,,,,,,
"موصل, Tower era technology company competencies",36.4008051,43.1492054,,,,,,,
"موصل, جامع الرحمن",36.4007888,43.1953689,,,,,,,
"موصل, مايسترو كافي _ Mastro Cafe",36.4007694,43.1455791,,,,,,,
"موصل, عدنان ابو اللفات",36.4007677,43.1181749,,,,,,,
"موصل, بيت ميسر العلاف",36.4007625,43.1181719,,,,,,,
"موصل, مارينا ماركت",36.4007583,43.1455227,,,,,,,
"موصل, الشيخ خالد المربط الحديدي",36.4007548,43.195792,,,,,,,
"موصل, مدرسة الاعراف",36.400747,43.1416855,,,,,,,
"موصل, @HDNet6",36.4007341,43.1482082,,,,,,,
"موصل, مدرسة سيف الرسول للبنين /",36.4007282,43.141773,,,,,,,
"موصل, اسواق صباح باجلان",36.4007178,43.2350441,,,,,,,
"موصل, مطعم ومشويات القيصر",36.4007115,43.1182035,,,,,,,
"موصل, Max game",36.4007109,43.1454636,,,,,,,
"موصل, ألخليل للتسوق",36.4007078,43.1454581,,,,,,,
"موصل, ماركت الكرم",36.4007,43.1630697,,,,,,,
"موصل, مقبرة قرية القبة/قرة قوين- الموصل",36.4006706,43.0452148,,,,,,,
"موصل, حمودي سنتر",36.4006673,43.1181615,,,,,,,
"موصل, ملعب العربي",36.40066,43.1149888,,,,,,,
"موصل, HRC 1",36.4006455,43.1593394,,,,,,,
"موصل, محمد الحيالي",36.4006341,43.1630148,,,,,,,
"موصل, مخزن سيراميك العربيه همام",36.400594,43.0912288,,,,,,,
"موصل, مكتب اليامن للعقارات",36.4005922,43.1884542,,,,,,,
"موصل, الحاج ابو علي كوستر",36.4005871,43.2258316,,,,,,,
"موصل, غسل السيارات",36.400567,43.1875901,,,,,,,
"موصل, افران وخضراوات وحلاقة النهرين",36.4005621,43.1629487,,,,,,,
"موصل, بيت صفوان الطالب",36.4005608,43.1530693,,,,,,,
"موصل, حلاقة",36.4005522,43.1243296,,,,,,,
"موصل, مكتب السبعي للعقارات",36.4005384,43.1884252,,,,,,,
"موصل, مكتب ابوتيسير للعقارات",36.4005353,43.1884297,,,,,,,
"موصل, مكتب الملا لتجارة العقارات",36.4005327,43.188439,,,,,,,
"موصل, Twilight photographer",36.4005279,43.1221838,,,,,,,
"موصل, Al-Halawani sweets",36.400525,43.1245141,,,,,,,
"موصل, احمد عباس",36.4005244,43.1711215,,,,,,,
"موصل, محطة وزن التحرير",36.4004944,43.2328813,,,,,,,
"موصل, Al shamam mosque",36.4004774,43.090458,,,,,,,
"موصل, ابو سعد البنجرجي",36.4004603,43.0905406,,,,,,,
"موصل, Mashallah Chicken",36.4004599,43.1163882,,,,,,,
"موصل, علي ماليبو",36.4004353,43.1205832,,,,,,,
"موصل, أفران الاغا",36.4004227,43.1185432,,,,,,,
"موصل, سلام القيسي",36.4004191,43.1247944,,,,,,,
"موصل, الشيخ ابو الحسن",36.4004167,43.0909612,,,,,,,
"موصل, Ferdos Mosque",36.4004089,43.1461912,,,,,,,
"موصل, جامع احباب الله",36.4003986,43.1546808,,,,,,,
"موصل, المعهد الطبي -قسم تقنيات صحة المجتمع",36.400381,43.0961348,,,,,,,
"موصل, صالة ألعاب وكافيه گوت",36.4003643,43.1511268,,,,,,,
"موصل, الجامعة التقنية الشمالية/المعهد التقني الطبي",36.4003597,43.0961664,,,,,,,
"موصل, مضيف السيد محمد الاعرجي",36.4003526,43.1087122,,,,,,,
"موصل, Al-Ghasaq Studio",36.4003457,43.1219944,,,,,,,
"موصل, مولدة الحدباء",36.4003454,43.1520539,,,,,,,
"موصل, Ali ahmad",36.400339,43.1248838,,,,,,,
"موصل, Lion 2 Rest & Cafe",36.4003387,43.1506788,,,,,,,
"موصل, سنتر الهدى",36.4003375,43.1520469,,,,,,,
"موصل, مكتب الدار البيضاء للعقار",36.4003363,43.1875543,,,,,,,
"موصل, جامعةه أكسفورد - الموصل - فرع الرشيدية",36.4003309,43.0962063,,,,,,,
"موصل, حسينية عبدالله الرضيع [ع]",36.4003077,43.044612,,,,,,,
"موصل, جامع العليم الحكيم",36.4003021,43.149623,,,,,,,
"موصل, مكتب الحدباء لتجاره العقار",36.4002983,43.1506381,,,,,,,
"موصل, روضة بياض الثلج",36.4002907,43.1506305,,,,,,,
"موصل, مقبرة قرة قوين",36.4002855,43.0454337,,,,,,,
"موصل, مقهى العسل",36.400277,43.1506166,,,,,,,
"موصل, مكتب المختار نشوان",36.4002711,43.1427937,,,,,,,
"موصل, Doll HOUSE صالون دول هاوس للسيدات",36.4002567,43.157993,,,,,,,
"موصل, أبو حسام الشهواني",36.4002487,43.1664575,,,,,,,
"موصل, بدران ثامر",36.4002376,43.1536043,,,,,,,
"موصل, جامع الأندلس",36.4002259,43.2054077,,,,,,,
"موصل, İmam HUSSEİN MOSQUE",36.4002254,43.0408914,,,,,,,
"موصل, شركة الأخوة المتحدون",36.4002211,43.1272362,,,,,,,
"موصل, حي الحدباء",36.4002112,43.1600715,,,,,,,
"موصل, اية ماركت",36.4002089,43.1601666,,,,,,,
"موصل, اروما كافيه",36.4002019,43.1600118,,,,,,,
"موصل, داري",36.4002018,43.1770457,,,,,,,
"موصل, دار وعد",36.4001981,43.1941173,,,,,,,
"موصل, عيادة الدكتور احمد الادلبي",36.4001722,43.1241991,,,,,,,
"موصل, Nabeel Al-Azzawi",36.4001698,43.1484601,,,,,,,
"موصل, دار الشيخ الحاج صبحي المولى",36.4001432,43.1200281,,,,,,,
"موصل, مولدة بسام يونس",36.400136,43.0910514,,,,,,,
"موصل, جرزات انقره",36.4001343,43.1515758,,,,,,,
"موصل, حمودي الفيتر",36.4001139,43.1913184,,,,,,,
"موصل, عيادة الدكتور علي عادل الحيالي",36.4001136,43.1624003,,,,,,,
"موصل, Moon Kingdom",36.4001083,43.15706,,,,,,,
"موصل, ملعب صديق",36.4000667,43.054805,,,,,,,
"موصل, مَحٌمَدِآلَ َّسهِيِّلَ",36.4000625,43.1946875,,,,,,,
"موصل, عمادة الكلية التقنية الزراعية",36.4000402,43.0985364,,,,,,,
"موصل, بيت سيد احمد النعيمي",36.4000286,43.0899718,,,,,,,
"موصل, الدكتورة سميرة احمد شيت",36.4000174,43.1169068,,,,,,,
"موصل, ابو سيف السويداني للكهربائيات والعدد",36.4000125,43.1619219,,,,,,,
"موصل, مكتب المدئ لتجارة العقارات",36.400003,43.1619361,,,,,,,
"موصل, استاذ كرم",36.3999875,43.1601719,,,,,,,
"موصل, مكتب ابو ديار لبيع المواد الانشائيه",36.3999873,43.162256,,,,,,,
"موصل, اسواق ابواوس",36.3999862,43.2050632,,,,,,,
"موصل, د. علي عباس",36.3999798,43.14298,,,,,,,
"موصل, المختار احمد غانم",36.3999755,43.1601716,,,,,,,
"موصل, ثانوية زها حديد للمتفوقات",36.3999696,43.1464564,,,,,,,
"موصل, ميار لتصفية المياه (عبدالله ذوالفقار)",36.3999595,43.1582253,,,,,,,
"موصل, محمد الطوبجي",36.3999499,43.1647053,,,,,,,
"موصل, Aermut Stadium",36.3999487,43.0856786,,,,,,,
"موصل, Ijsp0 Mali",36.3999406,43.1456142,,,,,,,
"موصل, دار خالد الطائي",36.3999347,43.1915,,,,,,,
"موصل, السيد بلال",36.3999296,43.1914949,,,,,,,
"موصل, معهد ابن سينا لدورات التقوية",36.3999192,43.1590974,,,,,,,
"موصل, سنتر الصبايا",36.3999102,43.1170923,,,,,,,
"موصل, مطعم حطبچي",36.3999079,43.1513344,,,,,,,
"موصل, بيت",36.399905,43.0878919,,,,,,,
"موصل, مطب",36.3998829,43.173987,,,,,,,
"موصل, هيثم سهيل",36.39986,43.1590168,,,,,,,
"موصل, ورشة الموصلي",36.39986,43.1590167,,,,,,,
"موصل, البيت",36.39986,43.1590167,,,,,,,
"موصل, dr. akram altaweel home",36.3998565,43.1496805,,,,,,,
"موصل, عمر فون",36.3998559,43.1184198,,,,,,,
"موصل, Saddam equipment",36.3998437,43.1188825,,,,,,,
"موصل, ابو شهم",36.3998373,43.1731895,,,,,,,
"موصل, شقة مشعل النواف الجربا",36.3998341,43.1622575,,,,,,,
"موصل, زيد البكري للمفاتيح",36.3998125,43.1577874,,,,,,,
"موصل, روضه الكفائات",36.3998075,43.145972,,,,,,,
"موصل, مولدة اسماء الله الحسنى",36.3997957,43.1694628,,,,,,,
"موصل, مكتب اضواء الهندسي",36.3997868,43.1575138,,,,,,,
"موصل, اسواق حمودي",36.3997635,43.2840658,,,,,,,
"موصل, مستشفى ابن سينا التعليمي",36.3997594,43.0942968,,,,,,,
"موصل, Al-Brifkani Mosque",36.3997558,43.1903625,,,,,,,
"موصل, حميد",36.3997527,43.1988977,,,,,,,
"موصل, Abokasem markets",36.3997293,43.1189698,,,,,,,
"موصل, سيد هاني",36.3997126,43.1424093,,,,,,,
"موصل, B.M.T",36.3997113,43.1740988,,,,,,,
"موصل, Zozo Beauty",36.3997002,43.1236694,,,,,,,
"موصل, كافتريا المحار",36.3996985,43.1509984,,,,,,,
"موصل, مولدة سدة الرشيدية",36.3996924,43.0862083,,,,,,,
"موصل, Alrawy for cars",36.3996899,43.1229073,,,,,,,
"موصل, حسين تركماني",36.3996889,43.0440182,,,,,,,
"موصل, Al-Eqhuwan Pharmacy",36.3996628,43.1172371,,,,,,,
"موصل, محطة تحلية ماء زمزم",36.3996589,43.1792863,,,,,,,
"موصل, قصابة ميسر الحيالي",36.399651,43.1189399,,,,,,,
"موصل, مكتب الأركان للعقارات",36.399647,43.116632,,,,,,,
"موصل, تجهيزات الخيرات",36.3996375,43.1516806,,,,,,,
"موصل, عيادة الدكتور محمود خيري احمد",36.3996298,43.1173059,,,,,,,
"موصل, شركة الصقر البارز للتجارة والمقاولات العامة المحدودة",36.3996192,43.123586,,,,,,,
"موصل, اكرم للادوات الكهربائية",36.3996159,43.1619203,,,,,,,
"موصل, المركز التخصصي",36.3996092,43.1234835, Lng: 43.1459063,,,,,,
"موصل, ابو جمال العباسي",36.3996074,43.1950557,,,,,,,
"موصل, عمر للتصوير",36.3996063,43.1561446,,,,,,,
"موصل, تجهيزات ابوعزيز",36.399605,43.1515972,,,,,,,
"موصل, محلات الساحل لبيع الاحذيه والحقائب",36.399593,43.1187192,,,,,,,
"موصل, الدكتور احمد حلبي",36.3995917,43.1234772,,,,,,,
"موصل, مركز جبايه شركة كار وزارة الكهرباء",36.3995682,43.1234806,,,,,,,
"موصل, حلاقة الاثير",36.399565,43.1628973,,,,,,,
"موصل, مطعم و ماكولات ينار",36.3995649,43.1618401,,,,,,,
"موصل, اسواق طيبة",36.3995639,43.1443799,,,,,,,
"موصل, مكتب البيت الحديد تجارة عقارات",36.399562,43.161176,,,,,,,
"موصل, مطعم الامواج السياحي",36.3995617,43.0858422,,,,,,,
"موصل, بيلا سويت",36.3995459,43.1507862,,,,,,,
"موصل, حلاقة الأغا",36.3995442,43.1190094,,,,,,,
"موصل, مسجد الزهراء",36.3995283,43.1879841,,,,,,,
"موصل, مكتب الحامد لتجارة العقارات",36.399521,43.1508043,,,,,,,
"موصل, المعهد التقني الطبي",36.3995056,43.0957768,,,,,,,
"موصل, Vape",36.3994987,43.1638868,,,,,,,
"موصل, مكتب السنابل لتجارة العقارات",36.3994946,43.1541728,,,,,,,
"موصل, أفران الكرم",36.3994786,43.1909895,,,,,,,
"موصل, مستشفى الشلل وتأهيل إصابات الحبل الشوكي ( ابن الاثير )",36.3994776,43.0934929,,,,,,,
"موصل, سايدين البحرين",36.3994741,43.1617776,,,,,,,
"موصل, الكلية التقنية الزراعية /الموصل",36.3994638,43.0957982,,,,,,,
"موصل, دار ابو رسل وعد العامري",36.3994601,43.1947727,,,,,,,
"موصل, Al Thakreen Mosque",36.3994553,43.1233532,,,,,,,
"موصل, مسجد مصطفى الرحو",36.3994548,43.0880199,,,,,,,
"موصل, محطة جرجيس الخدمية",36.3994539,43.0878364,,,,,,,
"موصل, مدرسة قرة قوين العليا",36.3994457,43.0434572,,,,,,,
"موصل, الحاج فارس حازم اللهيبي",36.399436,43.2268205,,,,,,,
"موصل, شركة الرحمة للسياحه والسفر",36.3994193,43.1162994,,,,,,,
"موصل, علاء للكهربائيات",36.3994082,43.1190339,,,,,,,
"موصل, صيدلية منتهى محمود حسين",36.3993975,43.0877405,,,,,,,
"موصل, المحامي وثاب النوفلي",36.3993866,43.1608912,,,,,,,
"موصل, مكوى الكندي",36.3993856,43.1432767,,,,,,,
"موصل, الكوافير عمر السندي",36.3993684,43.1506414,,,,,,,
"موصل, حلاقة ميمو للرجال",36.3993416,43.118884,,,,,,,
"موصل, مول الخيرات",36.399317,43.1615275,,,,,,,
"موصل, أفران ومعجنات الخيرات",36.3993169,43.1615281,,,,,,,
"موصل, ملعب ال شمام",36.3993125,43.0924101,,,,,,,
